,Stn_Name,Lat,Long,Prov,Tm,DwTm,D,Tx,DwTx,Tn,DwTn,S,DwS,S%N,P,DwP,P%N,S_G,Pd,BS,DwBS,BS%,HDD,CDD,Stn_No,xm,ym,Clus_Db
0,CHEMAINUS,48.935,-123.742,BC,8.2,0.0,,13.5,0.0,1.0,0.0,0.0,0.0,,178.8,0.0,,0.0,12.0,,,,273.3,0.0,1011500,1807806.266120346,1396332.2878689235,0
1,COWICHAN LAKE FORESTRY,48.824,-124.133,BC,7.0,0.0,3.0,15.0,0.0,-3.0,0.0,0.0,0.0,0.0,258.6,0.0,104.0,0.0,12.0,,,,307.0,0.0,1012040,1764329.0702750369,1377564.3486884069,0
2,LAKE COWICHAN,48.829,-124.052,BC,6.8,13.0,2.8,16.0,9.0,-2.5,9.0,0.0,9.0,,264.6,9.0,,,11.0,,,,168.1,0.0,1012055,1773335.8550920947,1378408.8563886946,0
3,DUNCAN KELVIN CREEK,48.735,-123.728,BC,7.7,2.0,3.4,14.5,2.0,-1.0,2.0,0.0,2.0,,168.4,2.0,,,11.0,,,,267.7,0.0,1012573,1809362.9943603328,1362546.1866929336,0
4,ESQUIMALT HARBOUR,48.432,-123.439,BC,8.8,0.0,,13.1,0.0,1.9,0.0,,,,81.0,8.0,,,12.0,,,,258.6,0.0,1012710,1841498.313028606,1311615.3198312465,0
5,GALIANO NORTH,48.985,-123.573,BC,8.9,7.0,,13.5,7.0,2.0,7.0,0.0,7.0,,110.0,7.0,,0.0,10.0,,,,191.7,0.0,10130MN,1826598.1998744586,1404799.9469790095,0
6,MALAHAT,48.575,-123.53,BC,7.2,1.0,,12.7,1.0,2.2,0.0,,,,108.8,10.0,,,12.0,,,,290.8,0.0,1014820,1831379.579468699,1335613.9593745312,0
7,NORTH COWICHAN,48.824,-123.719,BC,7.7,0.0,,14.7,0.0,-2.6,0.0,,,,132.8,0.0,,0.0,12.0,,,,288.8,0.0,1015630,1810363.748228895,1377564.3486884069,0
8,NORTH PENDER ISLAND,48.764,-123.287,BC,8.6,1.0,,14.0,1.0,2.0,1.0,0.0,1.0,,91.1,1.0,,0.0,13.0,,,,253.6,0.0,1015638,1858399.9339198759,1367436.8211927824,0
9,RACE ROCKS,48.298,-123.531,BC,9.6,0.0,,15.6,0.0,5.2,0.0,,,,,,,,,,,,234.7,0.0,1016640,1831268.3845944137,1289188.304761338,0
10,SAANICHTON CDA,48.622,-123.419,BC,8.1,0.0,2.8,14.0,0.0,-1.0,0.0,0.0,0.0,0.0,116.5,0.0,130.0,0.0,13.0,,,,277.8,0.0,1016940,1843722.2105142989,1343516.4403413795,0
11,SALTSPRING ST MARY'S L,48.888,-123.546,BC,8.3,1.0,3.3,14.5,1.0,1.0,1.0,0.0,1.0,,104.3,1.0,,0.0,11.0,,,,262.9,0.0,1016995,1829600.4614801435,1388380.4179418012,0
12,SATURNA CAPMON,48.775,-123.128,BC,7.8,0.0,2.8,12.9,0.0,2.0,0.0,0.0,0.0,0.0,77.2,0.0,120.0,0.0,14.0,,,,285.6,0.0,1017098,1876079.9189311408,1369292.6281633666,0
13,SATURNA CAPMON CS,48.775,-123.128,BC,7.6,0.0,,12.7,0.0,2.1,0.0,,,,72.5,1.0,,,13.0,,,,291.5,0.0,1017099,1876079.9189311408,1369292.6281633666,0
14,SATURNA ISLAND CS,48.784,-123.045,BC,8.7,1.0,,13.7,1.0,4.1,0.0,,,,65.0,2.0,,,12.0,,,,250.4,0.0,1017101,1885309.0934967692,1370811.318157304,0
15,SHAWNIGAN LAKE,48.647,-123.626,BC,7.1,0.0,3.0,14.0,0.0,-1.5,0.0,0.0,0.0,0.0,158.8,0.0,118.0,0.0,15.0,,,,304.5,0.0,1017230,1820704.8715373692,1347722.8859154424,0
16,SHERINGHAM POINT,48.377,-123.921,BC,9.5,1.0,,14.4,1.0,5.1,0.0,,,,128.6,1.0,,,15.0,,,,228.2,0.0,1017254,1787902.383623388,1302403.0611910373,0
17,VICTORIA UNIVERSITY CS,48.457,-123.305,BC,8.3,1.0,,14.9,1.0,0.0,0.0,,,,82.6,8.0,,,14.0,,,,261.6,0.0,1018598,1856398.4261827515,1315806.0064537274,0
18,VICTORIA GONZALES CS,48.413,-123.325,BC,8.9,0.0,,13.4,0.0,3.4,0.0,,,,71.6,8.0,,,12.0,,,,255.0,0.0,1018611,1854174.5286970583,1308431.7767711626,0
19,VICTORIA HIGHLANDS NORTH,48.538,-123.501,BC,8.1,14.0,,13.3,13.0,1.8,12.0,0.0,13.0,,113.6,13.0,,,14.0,,,,139.3,0.0,1018618,1834604.2308229543,1329398.023987188,0
20,VICTORIA INTL A,48.647,-123.426,BC,7.8,0.0,,14.4,0.0,-0.5,0.0,0.0,0.0,,112.0,0.0,,,14.0,,,,285.7,0.0,1018621,1842943.8463943056,1347722.8859154424,0
21,WILLIAM HEAD,48.34,-123.539,BC,9.2,1.0,3.0,14.0,1.0,3.5,1.0,0.0,1.0,,83.9,1.0,,0.0,14.0,,,,238.6,0.0,1018935,1830378.8256001368,1296211.321936638,0
22,BALLENAS ISLAND,49.35,-124.16,BC,8.1,0.0,,13.7,0.0,4.0,0.0,,,,103.0,2.0,,,12.0,,,,277.5,0.0,1020590,1761326.8086693503,1466872.881643367,0
23,CAMPBELL RIVER A,49.952,-125.273,BC,6.3,1.0,3.0,14.4,1.0,-5.0,1.0,0.0,1.0,,154.2,1.0,,0.0,15.0,,,,317.2,0.0,1021261,1637566.9135905001,1570265.1510851951,0
24,CAPE MUDGE,49.998,-125.195,BC,7.9,2.0,3.3,16.0,2.0,1.5,2.0,0.0,2.0,,73.6,2.0,,0.0,12.0,,,,263.1,0.0,1021330,1646240.1137847055,1578218.4886279032,0
25,CHATHAM POINT,50.333,-125.446,BC,7.8,1.0,3.2,12.0,1.0,1.5,1.0,0.0,1.0,,192.0,1.0,,0.0,14.0,,,,276.3,0.0,1021480,1618330.20033925,1636370.385703669,0
26,CHROME ISLAND,49.472,-124.683,BC,8.3,0.0,,14.0,0.0,2.5,0.0,0.0,0.0,,234.8,0.0,,0.0,16.0,,,,270.4,0.0,1021500,1703171.889418461,1487723.1603350397,0
27,COMOX A,49.717,-124.9,BC,7.4,0.0,3.1,13.5,0.0,-1.1,0.0,0.0,0.0,0.0,173.3,0.0,152.0,,11.0,,,,296.9,0.0,1021830,1679042.6016986852,1529752.0347931525,0
28,CORTES ISLAND TIBER BAY,50.071,-124.949,BC,8.5,14.0,,14.4,14.0,-1.5,14.0,0.0,14.0,,100.0,14.0,,0.0,12.0,,,,132.8,0.0,1021960,1673594.0528587366,1590855.724315947,0
29,COURTENAY GRANTHAM,49.763,-124.999,BC,7.6,6.0,,13.5,6.0,0.5,6.0,0.0,6.0,,140.1,6.0,,,13.0,,,,229.2,0.0,1021988,1668034.309144503,1537666.7859228859,0
30,COURTENAY PUNTLEDGE,49.686,-125.033,BC,6.9,7.0,,16.0,4.0,-3.0,4.0,0.0,4.0,,152.1,4.0,,0.0,13.0,,,,232.6,0.0,1021989,1664253.6834188232,1524422.4087125435,0
31,ENTRANCE ISLAND,49.209,-123.811,BC,8.3,0.0,,13.2,0.0,4.5,0.0,,,,84.4,0.0,,,12.0,,,,271.1,0.0,1022689,1800133.8197947028,1442839.739227268,0
32,FANNY ISLAND,50.454,-125.993,BC,8.3,0.0,,12.5,0.0,2.4,0.0,,,,167.6,7.0,,,15.0,,,,272.0,0.0,1022795,1557506.6041055298,1657475.2469541617,0
33,HERIOT BAY SE,50.099,-125.203,BC,7.4,4.0,,13.0,4.0,0.5,4.0,0.0,4.0,,164.8,4.0,,0.0,15.0,,,,254.2,0.0,1023462,1645350.5547904272,1595707.9870785857,0
34,LITTLE QUALICUM HATCHERY,49.353,-124.512,BC,6.6,0.0,2.9,13.5,0.0,-4.0,0.0,0.0,0.0,0.0,167.9,0.0,147.0,0.0,13.0,,,,319.1,0.0,1024638,1722186.212921142,1467384.9726371393,0
35,MUD BAY,49.471,-124.794,BC,7.5,1.0,3.5,14.0,1.0,-1.0,0.0,0.0,0.0,0.0,299.4,0.0,160.0,0.0,15.0,,,,283.0,0.0,1025240,1690829.2583728624,1487552.0455463724,0
36,MYRA CREEK,49.576,-125.606,BC,5.8,4.0,,12.0,2.0,-1.5,2.0,0.0,2.0,,437.2,2.0,,0.0,15.0,,,,292.0,0.0,1025254,1600539.0204537015,1505538.2085645404,0
37,NANAIMO A,49.054,-123.87,BC,7.4,0.0,3.2,14.9,0.0,-2.9,0.0,0.0,0.0,0.0,149.9,0.0,119.0,0.0,13.0,,,,295.5,0.0,1025370,1793573.322211907,1416499.2807007385,0
38,PORT HARDY A,50.681,-127.367,BC,6.7,0.0,,14.9,0.0,-2.9,0.0,0.0,0.0,,118.4,0.0,,,15.0,,,,316.2,0.0,1026271,1404724.846838377,1697214.7690521944,0
39,QUALICUM BEACH AIRPORT,49.337,-124.394,BC,7.3,0.0,,14.8,0.0,-1.6,0.0,,,,125.0,0.0,,0.0,12.0,,,,299.5,0.0,1026562,1735307.208086734,1464654.181450434,0
40,QUALICUM R FISH RESEARCH,49.394,-124.617,BC,7.4,2.0,3.3,14.5,2.0,-1.0,2.0,0.0,2.0,,171.2,2.0,,0.0,11.0,,,,274.6,0.0,1026565,1710510.7511212502,1474386.6819359828,0
41,QUINSAM RIVER HATCHERY,50.016,-125.304,BC,7.0,0.0,3.2,15.0,0.0,-2.5,0.0,0.0,0.0,0.0,165.6,0.0,103.0,0.0,16.0,,,,308.6,0.0,1026639,1634119.8724876745,1581332.7354114857,0
42,SISTERS ISLAND,49.487,-124.435,BC,8.6,0.0,,14.2,0.0,4.5,0.0,,,,,,,,,,,,263.2,0.0,1027403,1730748.2182410622,1490290.3014748022,0
43,ENTRANCE ISLAND,49.209,-123.809,BC,8.3,6.0,,13.0,6.0,3.5,6.0,0.0,6.0,,107.2,6.0,,0.0,11.0,,,,213.6,0.0,102BFHH,1800356.2095432733,1442839.739227268,0
44,ALBERNI ROBERTSON CREEK,49.337,-124.982,BC,7.2,3.0,4.1,18.0,3.0,-5.0,3.0,0.0,3.0,,139.4,3.0,,0.0,11.0,,,,271.0,0.0,1030230,1669924.622007342,1464654.181450434,-1
45,CAPE BEALE LIGHT,48.786,-125.216,BC,9.5,1.0,3.5,15.0,1.0,4.5,1.0,0.0,1.0,,220.4,1.0,,0.0,14.0,,,,228.2,0.0,1031316,1643905.0214247273,1371148.8418064397,0
46,ESTEVAN POINT,49.383,-126.543,BC,8.9,0.0,2.9,13.5,0.0,2.0,0.0,0.0,0.0,0.0,237.3,0.0,76.0,0.0,15.0,,,,255.6,0.0,1032730,1496349.423248954,1472507.6012151614,0
47,ESTEVAN POINT CS,49.383,-126.543,BC,8.7,0.0,,14.0,0.0,2.3,0.0,,,,223.3,0.0,,,16.0,,,,260.1,0.0,1032731,1496349.423248954,1472507.6012151614,0
48,GOLD RIVER TOWNSITE,49.779,-126.055,BC,7.5,0.0,4.2,16.0,0.0,-3.0,0.0,0.0,0.0,0.0,286.2,0.0,100.0,0.0,15.0,,,,294.5,0.0,1033232,1550612.5218998783,1540421.5029566893,0
49,LENNARD ISLAND,49.111,-125.923,BC,9.0,2.0,,14.0,2.0,4.0,2.0,0.0,2.0,,192.1,2.0,,0.0,12.0,,,,234.4,0.0,1034600,1565290.2453054567,1426176.201579905,0
50,NITINAT RIVER HATCHERY,48.859,-124.655,BC,8.5,2.0,3.7,16.0,2.0,-1.5,2.0,0.0,2.0,,406.6,2.0,,0.0,15.0,,,,248.1,0.0,1035612,1706285.3458984327,1383477.6731557008,0
51,NOOTKA LIGHTSTATION,49.6,-126.617,BC,9.1,0.0,3.3,13.0,0.0,4.0,0.0,0.0,0.0,0.0,274.8,0.0,84.0,0.0,15.0,,,,248.5,0.0,1035614,1488121.0025518877,1509654.762516302,0
52,PACHENA POINT,48.723,-125.097,BC,9.0,0.0,3.0,14.0,0.0,1.0,0.0,0.0,0.0,0.0,279.8,0.0,94.0,0.0,17.0,,,,251.6,0.0,1035940,1657137.2114646044,1360523.3010911187,0
53,PORT ALBERNI COX LAKE,49.202,-124.752,BC,7.9,0.0,4.1,14.5,0.0,-2.0,0.0,0.0,0.0,0.0,311.3,0.0,144.0,0.0,15.0,,,,281.6,0.0,1036208,1695499.443092819,1441648.3921968862,0
54,PORT ALICE,50.386,-127.455,BC,8.6,0.0,3.5,15.0,0.0,0.0,0.0,0.0,0.0,0.0,251.0,0.0,71.0,0.0,16.0,,,,262.2,0.0,1036240,1394939.6979013255,1645608.0352083333,0
55,QUATSINO,50.534,-127.653,BC,7.4,6.0,2.5,12.0,6.0,0.0,6.0,0.0,6.0,,102.8,6.0,,,11.0,,,,232.8,0.0,1036570,1372923.1127929578,1671458.5317867314,0
56,QUATSINO LIGHTSTATION,50.441,-128.033,BC,9.5,0.0,3.3,16.0,0.0,3.5,0.0,0.0,0.0,0.0,163.8,0.0,73.0,0.0,17.0,,,,238.4,0.0,1036572,1330669.060564781,1655205.1975684417,0
57,PORT ALBERNI (AUT),49.317,-124.927,BC,7.0,2.0,,14.2,2.0,-3.4,1.0,,,,155.4,21.0,,,7.0,,,,286.1,0.0,1036B06,1676040.3400929987,1461241.940557273,0
58,SARTINE ISLAND (AUT),50.821,-128.908,BC,8.4,0.0,,12.0,0.0,5.3,0.0,,,,138.8,2.0,,,15.0,,,,268.1,0.0,1037090,1233373.545565685,1721819.636006522,0
59,SOLANDER ISLAND (AUT),50.112,-127.94,BC,9.0,0.0,,13.9,0.0,4.9,0.0,,,,63.2,2.0,,,13.0,,,,253.4,0.0,1037553,1341010.1838732553,1597961.7873597397,0
60,TAHSIS VILLAGE NORTH,49.932,-126.654,BC,7.8,9.0,,14.0,9.0,-2.0,9.0,0.0,9.0,,395.0,9.0,,,13.0,,,,193.6,0.0,1037899,1484006.7922033553,1566809.5477843508,0
61,TOFINO A,49.082,-125.773,BC,8.5,0.0,3.1,14.8,0.0,-0.5,0.0,0.0,0.0,0.0,233.8,0.0,70.0,0.0,15.0,,,,265.4,0.0,1038205,1581969.4764481597,1421251.4679573933,0
62,UCLUELET KENNEDY CAMP,48.945,-125.527,BC,8.7,0.0,3.2,15.0,0.0,-1.5,0.0,0.0,0.0,0.0,250.2,0.0,71.0,0.0,16.0,,,,260.2,0.0,1038332,1609323.4155221905,1398025.1407916257,0
63,ZEBALLOS MURAUDE CREEK,50.053,-126.779,BC,8.2,0.0,,16.5,0.0,0.0,0.0,0.0,0.0,,424.6,0.0,,0.0,16.0,,,,273.6,0.0,1039035,1470107.4329177702,1587737.9084256785,0
64,GIBSONS GOWER POINT,49.386,-123.541,BC,8.4,0.0,3.2,13.0,0.0,3.5,0.0,0.0,0.0,0.0,125.4,0.0,101.0,0.0,15.0,,,,269.3,0.0,1043152,1830156.435851568,1473020.0360518163,0
65,MERRY ISLAND LIGHTSTATION,49.468,-123.913,BC,8.4,0.0,2.7,13.5,0.0,3.0,0.0,0.0,0.0,0.0,105.6,0.0,115.0,0.0,11.0,,,,269.7,0.0,1045100,1788791.9426176664,1487038.722138457,0
66,HOWE SOUND - PAM ROCKS,49.488,-123.299,BC,8.9,0.0,,14.1,0.0,4.9,0.0,,,,94.8,0.0,,,12.0,,,,256.0,0.0,10459NN,1857065.5954284596,1490461.4721802697,0
67,PORT MELLON,49.526,-123.496,BC,8.2,0.0,,14.6,0.0,2.1,0.0,,,,477.0,0.0,,0.0,15.0,,,,274.7,0.0,1046332,1835160.2051943787,1496968.5516457204,0
68,POWELL RIVER A,49.834,-124.5,BC,7.1,0.0,3.2,12.6,0.0,-3.1,0.0,0.0,0.0,0.0,150.6,0.0,138.0,0.0,14.0,,,,304.5,0.0,1046391,1723520.5514125582,1549897.7866127677,0
69,POWELL RIVER,49.835,-124.497,BC,6.8,0.0,,12.3,0.0,-2.6,0.0,,,,128.4,1.0,,0.0,13.0,,,,314.1,0.0,1046392,1723854.1360354123,1550070.1823922275,0
70,SECHELT AUT,49.458,-123.715,BC,7.4,0.0,,14.2,0.0,-1.6,0.0,,,,122.4,0.0,,0.0,13.0,,,,297.2,0.0,1047172,1810808.5277260325,1485327.871098944,0
71,SQUAMISH AIRPORT,49.783,-123.161,BC,7.1,0.0,,16.0,0.0,-2.2,0.0,,,,302.8,2.0,,0.0,11.0,,,,304.6,0.0,10476F0,1872410.4880797463,1541110.324335237,0
72,CAPE ST JAMES,51.936,-131.016,BC,8.2,0.0,,12.0,0.0,3.5,0.0,,,,,,,,,,,,273.7,0.0,1051351,998974.7505735767,1920467.1414457234,1
73,KINDAKUN ROCKS (AUT),53.316,-132.772,BC,8.2,0.0,,13.9,0.0,2.1,0.0,,,,75.8,5.0,,,10.0,,,,273.4,0.0,1054222,803716.5513296765,2173286.7284003673,1
74,LANGARA,54.255,-133.058,BC,6.3,0.0,2.2,11.0,0.0,-0.2,0.0,7.6,0.0,58.0,154.0,0.0,110.0,0.0,17.0,,,,327.9,0.0,1054500,771914.8172842576,2350022.9674932146,1
75,LANGARA ISLAND RCS,54.255,-133.058,BC,6.1,0.0,,10.9,0.0,-0.2,0.0,,,,142.9,3.0,,,13.0,,,,332.3,0.0,1054503,771914.8172842576,2350022.9674932146,1
76,MASSET A,54.0,-132.167,BC,5.6,0.0,,12.9,0.0,-3.2,0.0,0.2,0.0,,105.4,0.0,,0.0,13.0,,,,346.0,0.0,1054925,870989.4502719075,2301634.5640924443,1
77,ROSE SPIT (AUT),54.159,-131.661,BC,6.6,0.0,,11.1,0.0,-1.1,0.0,,,,62.6,20.0,,,6.0,,,,319.5,0.0,1056869,927254.0566599562,2331771.180925154,1
78,SANDSPIT A,53.254,-131.813,BC,6.5,0.0,2.4,12.5,0.0,-1.0,0.0,0.0,0.0,0.0,98.4,0.0,75.0,0.0,13.0,,,,321.7,0.0,1057050,910352.4357686861,2161754.9790120265,1
79,SANDSPIT AIRPORT AUTO,53.25,-131.813,BC,6.6,0.0,,12.3,0.0,-0.5,0.0,,,,67.8,15.0,,,7.0,,,,318.0,0.0,1057051,910352.4357686861,2161011.569348026,1
80,SANDSPIT,53.254,-131.814,BC,6.6,2.0,,12.3,2.0,-0.6,2.0,,,,0.0,3.0,,,0.0,,,,297.0,0.0,1057052,910241.240894401,2161754.9790120265,1
81,ADDENBROKE ISLAND,51.604,-127.864,BC,7.7,0.0,2.7,14.0,0.0,2.0,0.0,0.0,0.0,0.0,258.2,0.0,97.0,0.0,17.0,,,,289.4,0.0,1060080,1349460.9943188904,1860810.1665144758,-1
82,BELLA BELLA,52.185,-128.157,BC,5.5,1.0,,14.1,1.0,-3.9,1.0,,,,233.9,1.0,,,14.0,,,,337.8,0.0,1060815,1316880.896153478,1965500.1747233765,-1
83,BELLA COOLA A,52.388,-126.596,BC,4.7,0.0,2.6,14.5,0.0,-3.5,0.0,6.0,0.0,35.0,87.2,0.0,100.0,0.0,12.0,,,,373.2,0.0,1060841,1490456.0949118661,2002400.803187362,-1
84,BOAT BLUFF,52.643,-128.524,BC,7.2,0.0,3.3,13.0,0.0,2.0,0.0,0.0,0.0,0.0,516.8,0.0,121.0,0.0,17.0,,,,302.9,0.0,1060901,1276072.3772910011,2048995.0777288582,1
85,BONILLA ISLAND,53.493,-130.638,BC,7.7,0.0,2.7,12.5,0.0,2.0,0.0,0.0,0.0,0.0,183.6,0.0,104.0,0.0,14.0,,,,287.9,0.0,1060902,1041006.4130531846,2206300.4644409483,1
86,BONILLA ISLAND (AUT),53.493,-130.639,BC,7.4,0.0,,11.1,0.0,2.0,0.0,,,,114.2,2.0,,,11.0,,,,298.0,0.0,1060R0K,1040895.2181788994,2206300.4644409483,1
87,CATHEDRAL POINT (AUT),52.187,-127.471,BC,5.8,0.0,,11.0,0.0,0.3,0.0,,,,102.4,15.0,,,6.0,,,,341.5,0.0,1061458,1393160.57991277,1965862.9046368217,-1
88,CUMSHEWA ISLAND,53.03,-131.602,BC,7.6,0.0,,12.8,0.0,2.2,0.0,,,,,,,,,,,,290.4,0.0,1062251,933814.5542427521,2120230.607645305,1
89,DRYAD POINT,52.185,-128.112,BC,7.0,0.0,2.3,14.5,0.0,2.0,0.0,0.0,0.0,0.0,211.0,0.0,100.0,0.0,17.0,,,,307.7,0.0,1062544,1321884.6654962904,1965500.1747233765,-1
90,EGG ISLAND,51.247,-127.835,BC,7.3,0.0,2.2,13.0,0.0,1.0,0.0,0.0,0.0,0.0,156.2,0.0,72.0,0.0,17.0,,,,299.4,0.0,1062646,1352685.6456731472,1797145.664040395,0
91,GREEN ISLAND,54.569,-130.708,BC,5.8,0.0,2.0,10.0,0.0,0.5,0.0,0.4,0.0,4.0,243.6,0.0,140.0,0.0,15.0,,,,341.6,0.0,1063298,1033222.7718532577,2410019.952037248,1
92,GREY ISLET (AUT),54.58,-130.698,BC,5.8,0.0,,10.2,0.0,0.5,0.0,,,,23.0,14.0,,,6.0,,,,342.6,0.0,1063303,1034334.7205961035,2412130.1159451623,1
93,HERBERT ISLAND (AUT),50.94,-127.632,BC,8.9,0.0,,12.5,0.0,4.6,0.0,,,,48.6,0.0,,,14.0,,,,253.5,0.0,1063461,1375258.2051529363,1742791.8392572766,0
94,HOLLAND ROCK,54.172,-130.361,BC,6.8,1.0,,12.1,1.0,1.2,1.0,,,,34.8,13.0,,,10.0,,,,303.5,0.0,1063496,1071807.3932300431,2334240.2959665833,1
95,IVORY ISLAND,52.27,-128.407,BC,7.2,0.0,2.3,13.0,0.0,2.0,0.0,0.0,0.0,0.0,246.8,0.0,127.0,0.0,16.0,,,,303.4,0.0,1063690,1289082.1775823077,1980930.6075248579,1
96,KEMANO,53.563,-127.943,BC,1.7,0.0,1.3,16.5,0.0,-5.0,0.0,156.0,0.0,455.0,249.4,0.0,146.0,40.0,17.0,,,,456.5,0.0,1064020,1340676.5992504011,2219394.764971258,-1
97,KITIMAT TOWNSITE,54.054,-128.634,BC,1.4,4.0,1.1,7.0,4.0,-5.0,4.0,8.0,4.0,,112.0,4.0,,0.0,9.0,,,,399.0,0.0,1064320,1263840.9411196879,2311856.7022145092,-1
98,KITIMAT 2,54.01,-128.705,BC,2.2,11.0,1.3,10.5,10.0,-9.0,11.0,161.0,10.0,,190.9,10.0,,0.0,8.0,,,,269.3,0.0,1064321,1255946.1050454725,2303526.551555411,-1
99,LUCY ISLAND LIGHTSTATION,54.296,-130.609,BC,6.9,0.0,,11.3,0.0,0.8,0.0,,,,,,,,,,,,311.7,0.0,1064728,1044231.06440744,2357830.9497116283,1
100,PRINCE RUPERT,54.286,-130.445,BC,5.5,0.0,,11.9,0.0,-2.6,0.0,,,,186.5,0.0,,,15.0,,,,349.5,0.0,1066482,1062467.0237901295,2355925.847340882,1
101,STEWART A,55.936,-129.985,BC,0.8,0.0,1.9,9.4,0.0,-11.5,0.0,47.8,0.0,56.0,105.4,0.0,77.0,20.0,11.0,,,,482.6,0.0,1067742,1113616.6659610805,2676743.485561991,-1
102,TERRACE PCC,54.502,-128.625,BC,1.4,0.0,1.2,11.0,0.0,-10.5,0.0,38.4,0.0,131.0,77.1,0.0,83.0,2.0,9.0,,,,464.9,0.0,1068131,1264841.6949882484,2397179.416188405,-1
103,TERRACE A,54.469,-128.578,BC,0.3,0.0,,8.3,0.0,-8.0,0.0,179.3,0.0,,191.5,1.0,,,11.0,,,,495.3,0.0,1068134,1270067.8540796281,2390862.7102909386,-1
104,TRIPLE ISLAND,54.295,-130.88,BC,7.2,0.0,,12.0,0.0,1.5,0.0,0.0,0.0,,126.8,0.0,,0.0,14.0,,,,302.7,0.0,1068250,1014097.2534762928,2357640.418657042,1
105,KITIMAT HATCHERY,54.044,-128.682,BC,2.1,11.0,,10.5,11.0,-7.0,11.0,102.3,11.0,,205.0,11.0,,36.0,9.0,,,,269.7,0.0,106D289,1258503.587154023,2309962.7119056312,-1
106,EQUITY SILVER,54.199,-126.277,BC,-5.6,0.0,1.1,8.5,0.0,-18.0,0.0,79.5,0.0,196.0,86.5,0.0,212.0,0.0,11.0,,,,661.2,0.0,1072692,1525927.2598086798,2339370.9385044063,-1
107,HOUSTON,54.396,-126.668,BC,-1.9,7.0,,9.5,7.0,-16.0,7.0,5.0,8.0,,5.0,8.0,,0.0,1.0,,,,417.2,0.0,1073615,1482450.0639633688,2376907.469502518,-1
108,NASS CAMP,55.238,-129.03,BC,-0.7,0.0,1.6,10.5,0.0,-13.5,0.0,71.0,0.0,197.0,94.8,0.0,137.0,30.0,12.0,,,,524.7,0.0,1075384,1219807.7709029524,2539406.547055671,-1
109,SMITHERS,54.825,-127.183,BC,-2.7,0.0,,8.4,0.0,-17.0,0.0,,,,40.4,0.0,,,5.0,,,,580.5,0.0,1077499,1425184.7037067579,2459277.588964328,-1
110,SMITHERS A,54.825,-127.183,BC,-2.4,0.0,2.0,10.1,0.0,-17.4,0.0,41.0,0.0,175.0,52.4,0.0,224.0,25.0,9.0,,,,570.6,0.0,1077500,1425184.7037067579,2459277.588964328,-1
111,SMITHERS AIRPORT AUTO,54.824,-127.189,BC,-2.7,0.0,,8.9,0.0,-17.3,0.0,,,,45.2,0.0,,35.0,12.0,,,,578.9,0.0,1077501,1424517.5344610515,2459084.57007002,-1
112,SUSKWA VALLEY,55.289,-127.171,BC,-3.1,1.0,0.3,8.0,1.0,-14.5,1.0,28.3,1.0,,41.7,1.0,,28.0,7.0,,,,570.8,0.0,107G879,1426519.0421981742,2549359.0008931234,-1
113,OOTSA L SKINS L SPILLWAY,53.772,-125.997,BC,-4.8,0.0,1.4,8.5,0.0,-19.0,0.0,72.4,0.0,343.0,79.0,0.0,332.0,,12.0,,,,638.2,0.0,1085835,1557061.8246083907,2258620.0087108426,-1
114,OOTSA LAKESKINS LAKE CLIMATE,53.772,-125.997,BC,-4.2,0.0,,6.8,0.0,-18.8,0.0,,,,74.7,3.0,,57.0,10.0,,,,622.3,0.0,1085836,1557061.8246083907,2258620.0087108426,-1
115,PEMBERTON AIRPORT CS,50.306,-122.734,BC,4.5,3.0,,14.8,3.0,-3.6,2.0,,,,113.8,3.0,,0.0,10.0,,,,337.3,0.0,1086082,1919890.6993993057,1631668.3749583112,0
116,PUNTZI MOUNTAIN (AUT),52.114,-124.136,BC,-3.2,0.0,,11.1,0.0,-21.3,0.0,,,,20.7,0.0,,33.0,7.0,,,,592.6,0.0,1086558,1763995.4856521827,1952633.8181052487,-1
117,TATLAYOKO LAKE RCS,51.675,-124.403,BC,1.0,0.0,,12.9,0.0,-14.7,0.0,,,,39.9,0.0,,0.0,6.0,,,,476.4,0.0,1088015,1734306.4542181718,1873531.3148959307,-1
118,BARKERVILLE,53.069,-121.515,BC,-2.0,0.0,3.8,8.0,0.0,-16.0,0.0,53.9,0.0,94.0,75.8,0.0,125.0,90.0,14.0,,,,560.6,0.0,1090660,2055437.2511523315,2127444.7506673224,2
119,BURNS LAKE DECKER LAKE,54.383,-125.959,BC,-4.6,0.0,,7.4,0.0,-19.4,0.0,,,,34.4,0.0,,63.0,9.0,,,,632.0,0.0,1091174,1561287.229831208,2374424.895279213,-1
120,CRESCENT SPUR,53.6,-120.7,BC,-0.8,2.0,,9.0,2.0,-14.5,2.0,47.6,2.0,,65.0,2.0,,22.0,9.0,,,,489.7,0.0,1092120,2146061.0736943465,2226324.7935777865,2
121,FORT ST JAMES,54.455,-124.286,BC,-4.5,13.0,2.3,7.5,13.0,-21.0,13.0,9.0,13.0,,26.2,13.0,,,5.0,,,,337.8,0.0,1092970,1747316.25450948,2388184.4348096997,-1
122,FORT ST JAMES AUTO,54.455,-124.286,BC,-3.9,0.0,,7.6,0.0,-21.0,0.0,,,,45.6,2.0,,35.0,8.0,,,,613.0,0.0,1092975,1747316.25450948,2388184.4348096997,-1
123,HIXON,53.531,-122.699,BC,-0.3,6.0,3.5,8.5,6.0,-12.5,6.0,9.4,2.0,,30.6,2.0,,0.0,6.0,,,,402.0,0.0,1093474,1923782.5199992694,2213406.1135064084,2
124,HORSEFLY LAKE GRUHS LAKE,52.363,-121.364,BC,-0.9,11.0,3.1,12.5,11.0,-12.5,11.0,32.6,11.0,,51.8,11.0,,0.0,9.0,,,,321.4,0.0,1093600,2072227.677169318,1997847.2482562512,2
125,MCLEESE LAKE FRASERVIEW,52.38,-122.374,BC,-0.2,0.0,2.8,11.0,0.0,-10.0,0.0,22.0,0.0,206.0,37.2,0.0,257.0,11.0,8.0,,,,509.6,0.0,1095015,1959920.8541417911,2000943.3851294601,2
126,MCLEESE LAKE GRANITE MT,52.531,-122.286,BC,-0.9,13.0,,9.0,9.0,-14.0,9.0,28.8,9.0,,50.9,9.0,,,8.0,,,,283.6,0.0,1095018,1969706.0030788423,2028496.830284875,2
127,PRINCE GEORGE,53.884,-122.678,BC,-3.0,0.0,,7.3,0.0,-16.9,0.0,,,,30.4,0.0,,,8.0,,,,588.1,0.0,1096439,1926117.6123592476,2279720.649357524,-1
128,PRINCE GEORGE AIRPORT AUTO,53.889,-122.672,BC,-3.0,0.0,,7.2,0.0,-17.2,0.0,,,,33.6,0.0,,16.0,8.0,,,,588.2,0.0,1096453,1926784.781604956,2280663.9593341807,-1
129,PRINCE GEORGE STP,53.88,-122.768,BC,-1.4,5.0,2.3,14.0,5.0,-15.0,5.0,25.7,5.0,,34.3,5.0,,20.0,6.0,,,,446.3,0.0,1096468,1916110.073673626,2278966.0826046597,-1
130,QUESNEL,53.026,-122.51,BC,-0.1,4.0,,12.3,4.0,-12.2,3.0,,,,35.8,1.0,,,7.0,,,,433.2,0.0,1096629,1944798.3512390733,2119491.064484044,-1
131,QUESNEL AIRPORT AUTO,53.027,-122.506,BC,-1.7,0.0,,9.8,0.0,-13.0,0.0,,,,31.7,0.0,,25.0,6.0,,,,552.8,0.0,1096631,1945243.1307362125,2119675.9438446574,2
132,SPOKIN LAKE 4E,52.184,-121.686,BC,-1.1,0.0,4.3,11.0,0.0,-17.0,0.0,28.0,0.0,124.0,54.8,0.0,219.0,2.0,8.0,,,,533.9,0.0,1097646,2036422.9276496503,1965318.8158845697,-1
133,WILLIAMS LAKE A,52.183,-122.054,BC,-0.7,0.0,,9.6,0.0,-14.8,0.0,31.1,0.0,,54.4,2.0,,7.0,10.0,,,,523.3,0.0,1098941,1995503.2139128882,1965137.461124057,2
134,VANDERHOOF,54.033,-124.017,BC,-3.1,2.0,2.4,9.0,2.0,-16.5,2.0,24.8,2.0,,37.8,2.0,,0.0,8.0,,,,548.3,0.0,1098D90,1777227.6756920598,2307879.848845495,-1
135,108 MILE HOUSE ABEL LAKE,51.623,-121.263,BC,0.7,0.0,,11.5,0.0,-11.5,0.0,16.0,0.0,,34.4,0.0,,10.0,11.0,,,,485.5,0.0,109E7R6,2083458.3594720706,1864212.4662956009,2
136,ABBOTSFORD A,49.025,-122.36,BC,8.2,0.0,,15.4,0.0,-1.4,0.0,0.0,0.0,,111.4,1.0,,,14.0,,,,274.7,0.0,1100031,1961477.582381776,1411580.193380517,0
137,AGASSIZ RCS,49.243,-121.76,BC,8.6,0.0,2.7,16.0,0.0,-0.6,0.0,,,,124.0,1.0,,,14.0,,,,264.6,0.0,1100119,2028194.5069525843,1448628.6826376785,0
138,AGASSIZ CDA,49.243,-121.76,BC,8.9,2.0,3.8,16.0,1.0,-0.5,1.0,0.0,1.0,,168.8,1.0,,0.0,13.0,,,,236.6,0.0,1100120,2028194.5069525843,1448628.6826376785,0
139,WHISTLER - NESTERS,50.129,-122.955,BC,3.7,0.0,,12.8,0.0,-5.0,0.0,,,,124.4,0.0,,0.0,11.0,,,,399.8,0.0,1100875,1895316.632182391,1600909.9880558206,0
140,BLACKCOMB BASE SLIDING CENTER,50.102,-122.936,BC,3.1,0.0,,11.6,0.0,-3.9,0.0,,,,172.8,3.0,,0.0,9.0,,,,417.1,0.0,1100881,1897429.3347937989,1596228.0405453583,0
141,BURNABY SIMON FRASER U,49.278,-122.918,BC,8.3,15.0,4.1,14.0,15.0,4.5,15.0,0.0,15.0,,150.7,15.0,,,10.0,,,,125.8,0.0,1101158,1899430.8425309232,1454592.0539627066,0
142,CALLAGHAN VALLEY,50.144,-123.111,BC,3.3,0.0,,12.4,0.0,-4.7,0.0,,,,246.3,0.0,,0.0,12.0,,,,411.0,0.0,1101300,1877970.2317939799,1603512.2114336258,0
143,CHILLIWACK R HATCHERY,49.08,-121.704,BC,6.6,0.0,3.1,16.5,0.0,-1.5,0.0,0.0,0.0,0.0,153.8,0.0,120.0,0.0,17.0,,,,318.4,0.0,1101N65,2034421.4199125275,1420911.9371803002,0
144,DELTA BURNS BOG,49.126,-123.002,BC,7.3,2.0,,14.8,2.0,-3.9,1.0,,,,88.9,2.0,,,12.0,,,,277.9,0.0,1102415,1890090.4730910112,1428724.607198516,0
145,DELTA TSAWWASSEN BEACH,49.011,-123.093,BC,7.9,2.0,2.1,14.0,2.0,1.5,2.0,0.0,2.0,,70.6,2.0,,0.0,11.0,,,,261.8,0.0,1102425,1879971.7395311042,1409206.4875622308,0
146,FORT LANGLEY TELEGRAPH TRAIL,49.145,-122.551,BC,8.1,0.0,,15.0,0.0,-1.0,0.0,0.0,0.0,,116.6,0.0,,0.0,14.0,,,,276.0,0.0,1102912,1940239.3613934016,1431953.6945820516,0
147,HANEY UBC RF ADMIN,49.264,-122.573,BC,8.0,0.0,3.8,14.0,0.0,-1.0,0.0,0.0,0.0,0.0,192.9,0.0,96.0,0.0,14.0,,,,279.7,0.0,1103332,1937793.0741591398,1452206.197888162,0
148,LAIDLAW,49.356,-121.579,BC,7.8,0.0,3.6,15.0,0.0,-1.0,0.0,0.0,0.0,0.0,198.0,0.0,102.0,0.0,16.0,,,,286.7,0.0,1104488,2048320.7791981127,1467897.0948632676,0
149,MISSION WEST ABBEY,49.153,-122.271,BC,8.1,0.0,3.5,15.5,0.0,2.0,0.0,0.0,0.0,0.0,151.0,0.0,94.0,0.0,16.0,,,,277.0,0.0,1105192,1971373.9261931125,1433313.6807300048,0
150,N VANC GROUSE MTN RESORT,49.381,-123.078,BC,3.6,9.0,3.7,8.5,9.0,-1.0,9.0,5.0,9.0,,202.7,9.0,,0.0,12.0,,,,273.2,0.0,1105658,1881639.6626453747,1472165.99537135,-1
151,PITT MEADOWS CS,49.208,-122.69,BC,8.2,1.0,,15.6,1.0,-2.5,0.0,,,,128.3,1.0,,,13.0,,,,264.7,0.0,1106178,1924783.2738678316,1442669.536468085,0
152,POINT ATKINSON,49.33,-123.265,BC,7.6,0.0,,14.3,0.0,2.4,0.0,,,,112.4,0.0,,,13.0,,,,292.5,0.0,1106200,1860846.2211541394,1463459.7394603584,0
153,RICHMOND NATURE PARK,49.171,-123.093,BC,7.8,1.0,2.9,19.5,1.0,-3.0,1.0,0.0,1.0,,107.4,1.0,,0.0,12.0,,,,275.8,0.0,1106PF7,1879971.7395311042,1436374.4527804246,-1
154,SANDHEADS CS,49.106,-123.303,BC,8.2,0.0,,13.6,0.0,3.7,0.0,,,,,,,,,,,,274.4,0.0,1107010,1856620.815931322,1425326.9042688236,0
155,SUMAS CANAL,49.113,-122.11,BC,8.5,11.0,,16.0,7.0,1.5,7.0,0.0,7.0,,146.5,7.0,,,15.0,,,,161.8,0.0,1107785,1989276.3009529463,1426515.9444705658,0
156,VANCOUVER SEA ISLAND CCG,49.183,-123.187,BC,7.6,0.0,,14.4,0.0,-0.8,0.0,,,,94.6,0.0,,,13.0,,,,291.3,0.0,1108380,1869519.421348345,1438415.585774634,0
157,VANCOUVER INTL A,49.195,-123.184,BC,7.4,0.0,,14.3,0.0,-1.9,0.0,0.0,0.0,,113.4,0.0,,0.0,15.0,,,,296.4,0.0,1108395,1869853.005971199,1440457.2137883436,0
158,VANCOUVER HARBOUR CS,49.295,-123.122,BC,8.5,0.0,,13.1,0.0,1.9,0.0,,,,130.0,0.0,,,13.0,,,,265.2,0.0,1108446,1876747.088176849,1457490.0755692609,0
159,WEST VANCOUVER AUT,49.347,-123.193,BC,8.3,0.0,,13.7,0.0,1.7,0.0,,,,121.5,1.0,,,12.0,,,,270.8,0.0,1108824,1868852.2521026367,1466360.8218767392,0
160,WHISTLER ROUNDHOUSE,50.068,-122.947,BC,-1.2,0.0,,8.0,0.0,-10.0,0.0,59.1,0.0,,207.1,0.0,,144.0,11.0,,,,537.1,0.0,1108906,1896206.1911766678,1590336.0070834039,-1
161,WHITE ROCK CAMPBELL SCIENTIFIC,49.018,-122.784,BC,9.0,0.0,,16.5,0.0,0.3,0.0,,,,94.8,11.0,,0.0,13.0,,,,252.2,0.0,1108910,1914330.9556850705,1410393.2570158998,0
162,N VAN SEYMOUR HATCHERY,49.438,-122.967,BC,6.8,3.0,3.8,13.5,3.0,-2.0,3.0,0.0,3.0,,178.1,3.0,,0.0,13.0,,,,280.9,0.0,110N666,1893982.2936909746,1481907.2160095507,0
163,HOPE A,49.368,-121.498,BC,7.8,0.0,,15.0,0.0,-1.2,0.0,,,,163.7,0.0,,,17.0,,,,286.2,0.0,1113542,2057327.5640151708,1469945.8961956436,0
164,HOPE AIRPORT,49.37,-121.493,BC,7.7,0.0,,14.9,0.0,-1.5,0.0,,,,153.8,0.0,,,17.0,,,,288.7,0.0,1113543,2057883.5383865952,1470287.4116995912,0
165,HOPE SLIDE,49.267,-121.233,BC,4.0,0.0,4.3,14.0,0.0,-4.5,0.0,0.0,0.0,0.0,94.0,0.0,90.0,0.0,15.0,,,,393.1,0.0,1113581,2086794.2057006112,1452717.39576667,0
166,LILLOOET,50.684,-121.934,BC,5.2,0.0,,14.8,0.0,-2.8,0.0,,,,52.6,0.0,,,8.0,,,,359.6,0.0,1114619,2008846.5988270505,1697741.2456432125,0
167,LYTTON A,50.224,-121.582,BC,5.5,2.0,,14.0,2.0,-3.3,1.0,,,,0.0,3.0,,,0.0,,,,326.0,0.0,1114738,2047987.1945752588,1617404.5373373749,0
168,LYTTON RCS,50.224,-121.582,BC,5.6,0.0,,14.5,0.0,-3.4,0.0,,,,80.2,0.0,,0.0,7.0,,,,348.5,0.0,1114746,2047987.1945752588,1617404.5373373749,0
169,HEDLEY N,49.364,-120.069,BC,3.6,1.0,,12.0,1.0,-5.0,1.0,2.2,1.0,,12.8,1.0,,0.0,5.0,,,,388.6,0.0,1123370,2216225.0393679803,1469262.9068641206,0
170,HEDLEY NP MINE,49.369,-120.022,BC,0.7,6.0,4.4,11.5,6.0,-8.5,6.0,8.0,6.0,,8.0,6.0,,,4.0,,,,379.9,0.0,1123390,2221451.19845936,1470116.6522109406,0
171,JELLICOE,49.673,-120.333,BC,1.7,0.0,,11.5,0.0,-9.5,0.0,4.0,0.0,,22.8,0.0,,30.0,11.0,,,,457.7,0.0,1123721,2186869.592556825,1522188.4156743838,0
172,KELOWNA,49.957,-119.378,BC,2.8,0.0,,12.8,0.0,-7.7,0.0,,,,33.0,0.0,,,9.0,,,,426.6,0.0,1123939,2293060.6974986955,1571129.2761266697,0
173,KELOWNA UBCO,49.941,-119.4,BC,3.6,0.0,,13.2,0.0,-5.6,0.0,,,,23.0,0.0,,,6.0,,,,404.1,0.0,1123996,2290614.4102644315,1568364.3917436674,0
174,KELOWNA MWS0,49.95,-119.4,BC,3.6,0.0,,13.2,0.0,-5.5,0.0,13.2,0.0,,29.2,0.0,,0.0,7.0,,,,402.5,0.0,11239R0,2290614.4102644315,1569919.5261892965,0
175,MERRITT,50.113,-120.778,BC,3.2,0.0,,13.8,0.0,-8.4,0.0,,,,0.2,27.0,,,0.0,,,,414.9,0.0,1125073,2137387.873500141,1598135.1819529003,0
176,MERRITT STP,50.114,-120.801,BC,3.9,0.0,4.4,13.5,0.0,-6.5,0.0,1.2,0.0,14.0,8.2,0.0,42.0,0.0,4.0,,,,396.2,0.0,1125079,2134830.391391594,1598308.5801671874,0
177,OKANAGAN CENTRE,50.056,-119.445,BC,3.7,0.0,2.7,11.5,0.0,-2.5,0.0,5.6,0.0,72.0,31.6,0.0,139.0,0.0,8.0,,,,399.8,0.0,1125700,2285610.6409216225,1588257.4631748535,0
178,OLIVER STP,49.179,-119.545,BC,6.0,13.0,4.6,15.0,13.0,-5.0,10.0,0.0,10.0,,6.0,10.0,,,3.0,,,,179.8,0.0,1125766,2274491.1534931534,1437735.1531240102,0
179,OSOYOOS CS,49.028,-119.441,BC,5.4,0.0,3.5,12.8,0.0,-5.5,0.0,,,,10.1,0.0,,0.0,2.0,,,,352.6,0.0,1125852,2286055.4204187603,1412088.931505139,0
180,PEACHLAND,49.783,-119.717,BC,4.6,4.0,3.2,12.5,4.0,-2.0,4.0,3.0,4.0,,35.8,4.0,,0.0,9.0,,,,322.0,0.0,1126070,2255365.6351161883,1541110.324335237,0
181,PENTICTON A,49.463,-119.602,BC,4.6,0.0,,13.0,0.0,-5.1,0.0,1.8,0.0,,18.6,0.0,,,6.0,,,,376.5,0.0,1126146,2268153.0456589265,1486183.2529738676,0
182,PRINCETON A,49.468,-120.513,BC,1.3,0.0,3.6,8.5,0.0,-8.5,0.0,0.4,0.0,2.0,30.8,0.0,150.0,13.0,7.0,,,,468.3,0.0,1126510,2166854.5151855815,1487038.722138457,0
183,VERNON BELLA VISTA,50.264,-119.31,BC,3.0,0.0,3.3,12.5,0.0,-4.0,0.0,7.2,0.0,60.0,38.0,0.0,156.0,0.0,10.0,,,,419.5,0.0,1128553,2300621.948950053,1624359.4390150588,0
184,VERNON AUTO,50.223,-119.194,BC,2.1,0.0,,12.0,0.0,-5.4,0.0,,,,30.6,0.0,,,8.0,,,,445.2,0.0,1128582,2313520.554367076,1617230.7395496946,0
185,VERNON NORTH,50.344,-119.27,BC,2.2,0.0,2.4,9.5,0.0,-4.0,0.0,19.0,0.0,141.0,49.0,0.0,195.0,0.0,11.0,,,,441.2,0.0,1128583,2305069.7439214415,1638286.7857552152,0
186,VERNON SILVER STAR LODGE,50.359,-119.056,BC,-2.3,13.0,,4.5,2.0,-10.0,13.0,51.0,2.0,,51.0,2.0,,0.0,10.0,,,,305.2,0.0,1128584,2328865.447018363,1640900.7739976104,-1
187,WINFIELD,50.037,-119.415,BC,3.4,0.0,3.4,11.5,0.0,-3.0,0.0,9.8,0.0,86.0,28.6,0.0,137.0,0.0,7.0,,,,408.3,0.0,1128958,2288946.4871501615,1584967.4981842814,0
188,PRINCETON CS,49.465,-120.51,BC,0.7,0.0,,8.7,0.0,-9.0,0.0,,,,20.0,0.0,,15.0,7.0,,,,483.4,0.0,112FN0M,2167188.0998084354,1486525.430163581,-1
189,SUMMERLAND CS,49.563,-119.649,BC,4.0,0.0,3.1,12.9,0.0,-4.3,0.0,,,,18.0,0.0,,,6.0,,,,392.0,0.0,112G8L1,2262926.8865675465,1503309.2537181247,0
190,MIDWAY,49.004,-118.772,BC,2.5,0.0,3.8,12.5,0.0,-8.0,0.0,17.0,0.0,128.0,30.6,0.0,119.0,0.0,6.0,,,,434.4,0.0,1135126,2360444.7913152114,1408019.8849548642,0
191,BILLINGS,49.017,-118.228,BC,2.5,0.0,3.3,11.5,0.0,-6.0,0.0,15.6,0.0,82.0,30.4,0.0,92.0,0.0,7.0,,,,434.4,0.0,1140876,2420934.8029260794,1410223.7083049892,0
192,CASTLEGAR A,49.296,-117.633,BC,3.0,0.0,3.2,12.2,0.0,-7.3,0.0,12.6,0.0,49.0,62.9,0.0,123.0,0.0,8.0,,,,419.6,0.0,1141455,2487095.7531254645,1457660.578551014,0
193,CASTLEGAR BCHPA DAM,49.343,-117.774,BC,4.0,0.0,3.7,12.5,0.0,-3.0,0.0,0.0,0.0,0.0,30.6,0.0,69.0,0.0,8.0,,,,392.6,0.0,1141457,2471417.2758513237,1465678.1240877807,0
194,CRESTON,49.097,-116.518,BC,3.4,0.0,3.4,12.0,0.0,-6.0,0.0,4.0,0.0,23.0,76.2,0.0,174.0,0.0,7.0,,,,409.9,0.0,1142160,2611078.037952883,1423798.3847411638,0
195,DUNCAN LAKE DAM,50.239,-116.972,BC,1.6,0.0,3.1,8.0,0.0,-8.5,0.0,13.0,0.0,53.0,82.7,0.0,147.0,0.0,11.0,,,,458.8,0.0,1142574,2560595.565027639,1620011.9415325494,0
196,FAUQUIER,49.872,-118.068,BC,1.9,0.0,2.5,9.0,0.0,-6.0,0.0,11.0,0.0,56.0,52.2,0.0,118.0,0.0,10.0,,,,450.0,0.0,1142820,2438725.982811628,1556451.3340964979,0
197,KASLO,49.913,-116.921,BC,3.0,0.0,3.5,9.0,0.0,-7.0,0.0,11.1,0.0,53.0,94.9,0.0,157.0,0.0,11.0,,,,420.7,0.0,1143900,2566266.503616156,1563528.0527077522,0
198,LISTER,49.032,-116.458,BC,2.8,0.0,3.0,10.5,0.0,-7.5,0.0,1.0,0.0,6.0,53.8,0.0,163.0,0.0,4.0,,,,426.7,0.0,1144635,2617749.7304099645,1412767.29672076,0
199,NAKUSP CS,50.269,-117.817,BC,2.2,0.0,,9.9,0.0,-5.9,0.0,,,,81.1,0.0,,1.0,12.0,,,,443.4,0.0,1145297,2466635.8962570834,1625229.2123170225,0
200,NELSON NE,49.586,-117.206,BC,3.4,0.0,,10.0,0.0,-4.5,0.0,10.4,0.0,,92.4,0.0,,0.0,9.0,,,,407.6,0.0,1145442,2534575.9644450224,1507253.193265127,0
201,NEW DENVER,49.996,-117.37,BC,2.7,0.0,3.0,9.5,0.0,-5.0,0.0,9.8,0.0,48.0,72.8,0.0,127.0,0.0,11.0,,,,427.9,0.0,1145460,2516340.0050623347,1577872.5331843086,0
202,NELSON CS,49.491,-117.305,BC,3.6,0.0,,12.4,0.0,-4.8,0.0,,,,62.9,0.0,,0.0,8.0,,,,403.8,0.0,1145M29,2523567.6718908385,1490975.0052761957,0
203,WARFIELD RCS,49.112,-117.739,BC,3.3,2.0,,11.4,2.0,-6.4,1.0,,,,130.3,4.0,,,12.0,,,,382.1,0.0,1148705,2475309.096451287,1426346.0713131726,0
204,CRESTON CAMPBELL SCIENTIFIC,49.082,-116.501,BC,3.3,0.0,,11.7,0.0,-5.1,0.0,,,,63.5,0.0,,2.0,4.0,,,,411.9,0.0,114B1F0,2612968.3508157227,1421251.4679573933,0
205,NELSON RIXEN CREEK,49.512,-117.399,BC,2.1,0.0,,10.5,0.0,-6.0,0.0,22.0,0.0,,89.2,0.0,,12.0,10.0,,,,445.7,0.0,114EMDM,2513115.353708079,1494570.6184972022,0
206,BAYNES LAKE KOOTENAY RIVER,49.226,-115.221,BC,0.5,5.0,3.7,12.5,5.0,-12.5,5.0,0.0,4.0,,0.8,4.0,,0.0,0.0,,,,401.6,0.0,1150690,2755297.7899001148,1445733.7130070599,-1
207,CRANBROOK A,49.612,-115.782,BC,0.4,0.0,,10.9,0.0,-13.7,0.0,10.0,0.0,,20.2,1.0,,0.0,5.0,,,,492.5,0.0,1152105,2692917.465426409,1511713.7992932964,-1
208,CRANBROOK AIRPORT AUTO,49.618,-115.789,BC,0.5,0.0,,10.7,0.0,-13.8,0.0,,,,16.2,0.0,,2.0,4.0,,,,489.1,0.0,1152106,2692139.101306416,1512743.5077806916,-1
209,FERNIE,49.489,-115.073,BC,1.2,7.0,5.0,13.5,7.0,-13.0,7.0,4.0,7.0,,78.0,7.0,,0.0,6.0,,,,353.2,0.0,1152850,2771754.6312942486,1490632.646382194,-1
210,FORDING RIVER COMINCO,50.149,-114.855,BC,-5.4,21.0,2.7,8.5,15.0,-23.2,15.0,20.4,15.0,,20.4,15.0,,,6.0,,,,163.9,0.0,1152899,2795995.113888308,1604379.8005652651,-1
211,FT STEELE DANDY CRK,49.524,-115.461,BC,0.8,14.0,,13.0,8.0,-12.5,9.0,1.0,8.0,,9.3,8.0,,0.0,4.0,,,,241.2,0.0,1153034,2728611.0200717915,1496625.9477333548,-1
212,KIMBERLEY PCC,49.631,-115.962,BC,-0.5,12.0,3.6,10.0,12.0,-13.0,12.0,13.0,12.0,,13.0,12.0,,2.0,3.0,,,,295.5,0.0,1154203,2672902.3880551658,1514974.9778510751,-1
213,KOOTENAY NP WEST GATE,50.631,-116.061,BC,0.9,6.0,5.1,9.0,4.0,-9.5,6.0,3.2,0.0,23.0,13.0,0.0,67.0,0.0,4.0,,,,375.6,0.0,1154410,2661894.095500982,1688445.1096288748,0
214,SPARWOOD,49.745,-114.883,BC,-0.2,2.0,4.4,11.0,2.0,-16.0,2.0,5.6,2.0,,38.8,2.0,,0.0,4.0,,,,472.6,0.0,1157630,2792881.6574083376,1534568.81570738,-1
215,SPARWOOD CS,49.745,-114.884,BC,-0.5,0.0,,10.8,0.0,-16.2,0.0,,,,0.0,27.0,,,0.0,,,,518.3,0.0,1157631,2792770.4625340523,1534568.81570738,-1
216,WARDNER KTNY HATCHERY,49.473,-115.46,BC,1.8,4.0,4.4,12.0,4.0,-10.5,4.0,0.0,4.0,,17.4,4.0,,0.0,3.0,,,,388.1,0.0,1158692,2728722.2149460767,1487894.2786170458,0
217,WASA,49.807,-115.631,BC,1.3,0.0,4.5,11.0,0.0,-11.5,0.0,7.4,0.0,55.0,19.8,0.0,107.0,0.0,5.0,,,,466.5,0.0,1158730,2709707.8914433955,1545244.4473969908,-1
218,ASHCROFT,50.708,-121.281,BC,4.6,0.0,,13.5,0.0,-4.2,0.0,,,,24.6,0.0,,,6.0,,,,375.5,0.0,1160515,2081456.8517349462,1701954.2706601173,0
219,BLUE RIVER A,52.129,-119.29,BC,-0.9,0.0,3.5,8.4,0.0,-13.8,0.0,32.6,0.0,66.0,65.8,0.0,122.0,58.0,12.0,,,,528.3,0.0,1160899,2302845.8464357466,1955350.3537135841,2
220,BLUE RIVER CS,52.129,-119.29,BC,-0.4,0.0,,10.3,0.0,-12.6,0.0,,,,0.2,0.0,,,0.0,,,,515.1,0.0,1160H99,2302845.8464357466,1955350.3537135841,2
221,BUFFALO LAKE,51.709,-121.083,BC,-0.4,1.0,4.0,9.5,1.0,-15.0,1.0,22.4,1.0,,51.6,1.0,,11.0,10.0,,,,497.1,0.0,1161104,2103473.436843314,1879630.194519733,2
222,CLEARWATER AUTO,51.653,-120.082,BC,1.3,0.0,,11.0,0.0,-8.3,0.0,,,,48.0,0.0,,20.0,9.0,,,,468.6,0.0,1161650,2214779.5060022804,1869587.42044082,-1
223,CLINTON (AUT),51.145,-121.505,BC,0.5,0.0,,9.4,0.0,-11.6,0.0,,,,24.5,1.0,,,9.0,,,,490.3,0.0,1161661,2056549.199895179,1779046.6700700307,2
224,CLINTON A,51.266,-121.685,BC,-0.3,0.0,,10.5,0.0,-10.2,0.0,,,,13.4,0.0,,,4.0,,,,511.0,0.0,1161662,2036534.1225239355,1800521.478231931,2
225,CRISS CREEK,51.03,-120.728,BC,-0.2,0.0,5.0,11.0,0.0,-16.0,0.0,15.2,0.0,91.0,26.0,0.0,147.0,2.0,7.0,,,,510.3,0.0,1162177,2142947.617214376,1758688.8433715878,-1
226,DARFIELD,51.297,-120.183,BC,2.1,2.0,3.9,12.0,1.0,-4.5,1.0,21.0,1.0,,38.4,1.0,,,10.0,,,,414.3,0.0,1162265,2203548.823699526,1806032.3830424398,0
227,KAMLOOPS A,50.703,-120.449,BC,4.0,0.0,,15.1,0.0,-4.5,0.0,11.8,0.0,,27.6,0.0,,,8.0,,,,393.0,0.0,1163781,2173970.987139802,1701076.3793132072,0
228,KAMLOOPS AUT,50.702,-120.442,BC,4.1,0.0,,14.8,0.0,-4.3,0.0,,,,24.5,0.0,,,6.0,,,,389.2,0.0,1163842,2174749.3512597955,1700900.8122772416,0
229,100 MILE HOUSE 6NE,51.681,-121.217,BC,-0.6,0.0,,10.0,0.0,-12.0,0.0,29.8,0.0,,50.6,0.0,,11.0,9.0,,,,519.7,0.0,1165793,2088573.3236891667,1874607.2549426993,2
230,RED LAKE,50.935,-120.8,BC,1.2,0.0,5.3,10.0,0.0,-12.0,0.0,19.9,0.0,89.0,35.7,0.0,152.0,1.0,7.0,,,,471.5,0.0,1166658,2134941.5862658788,1741909.575175887,2
231,SILVER CREEK,50.545,-119.35,BC,1.7,6.0,2.9,9.0,6.0,-7.0,6.0,15.0,6.0,,48.6,6.0,,0.0,10.0,,,,358.3,0.0,1167337,2296174.153978667,1673383.0870795017,0
232,SUN PEAKS MOUNTAIN,50.903,-119.911,BC,-4.6,19.0,,3.0,19.0,-11.0,19.0,6.0,19.0,,6.0,19.0,,126.0,1.0,,,,203.0,0.0,1168204,2233793.82950496,1736265.329994115,-1
233,VAVENBY,51.576,-119.778,BC,1.7,0.0,4.4,10.0,0.0,-8.0,0.0,7.0,0.0,60.0,22.4,0.0,100.0,0.0,9.0,,,,455.8,0.0,1168520,2248582.7477848222,1855798.8450453319,0
234,KAMLOOPS PRATT ROAD,50.6,-120.2,BC,2.3,0.0,,11.0,0.0,-4.5,0.0,16.2,0.0,,35.0,0.0,,0.0,10.0,,,,438.7,0.0,116C8P0,2201658.510836687,1683012.6040855767,0
235,SALMON ARM CS,50.703,-119.291,BC,2.3,0.0,2.3,11.5,0.0,-4.9,0.0,,,,41.1,0.0,,0.0,7.0,,,,439.3,0.0,116FRMN,2302734.651561463,1701076.3793132072,0
236,SUN PEAKS LOWER,50.887,-119.882,BC,-1.8,19.0,,7.5,19.0,-13.5,19.0,4.0,19.0,,4.0,19.0,,39.0,1.0,,,,178.6,0.0,116Q20D,2237018.4808592154,1733444.662110473,-1
237,SUN PEAKS UPPER,50.902,-119.918,BC,-4.1,2.0,,2.5,1.0,-12.0,1.0,37.0,1.0,,37.0,1.0,,157.0,8.0,,,,574.3,0.0,116QK0M,2233015.4653849667,1736089.0098569952,-1
238,GOLDEN A,51.299,-116.982,BC,-0.7,3.0,4.3,9.0,3.0,-12.5,3.0,10.0,3.0,,23.4,3.0,,13.0,3.0,,,,468.0,0.0,1173210,2559483.6162847914,1806388.0530487606,2
239,GOLDSTREAM RIVER,51.63,-118.425,BC,-0.5,2.0,3.7,7.0,0.0,-9.0,2.0,50.0,0.0,81.0,103.0,0.0,155.0,67.0,16.0,,,,480.0,0.0,1173242,2399029.412691997,1865466.3042806387,-1
240,MICA DAM,52.053,-118.585,BC,-0.1,2.0,3.3,5.5,1.0,-8.0,1.0,63.0,1.0,,125.5,1.0,,108.0,13.0,,,,469.7,0.0,1175122,2381238.2328064484,1941595.9797356725,-1
241,REVELSTOKE A,50.967,-118.183,BC,0.9,0.0,,9.8,0.0,-7.2,0.0,,,,87.1,0.0,,,11.0,,,,478.8,0.0,1176745,2425938.5722688884,1747557.705494902,0
242,REVELSTOKE AIRPORT AUTO,50.958,-118.176,BC,1.0,0.0,,10.1,0.0,-7.4,0.0,,,,91.8,0.0,,37.0,11.0,,,,476.1,0.0,1176755,2426716.936388882,1745968.7757436885,0
243,YOHO PARK,51.443,-116.345,BC,-4.3,0.0,,5.0,0.0,-22.9,0.0,,,,59.0,0.0,,84.0,11.0,,,,624.9,0.0,11790J1,2630314.7512041335,1832037.1295967288,-1
244,YOHO NP EMERALD LAKE,51.433,-116.541,BC,-1.9,5.0,,15.5,5.0,-16.0,5.0,24.5,5.0,,30.5,5.0,,0.0,7.0,,,,457.4,0.0,117R00G,2608520.5558443363,1830253.3341604695,-1
245,YOHO NP OHARA LAKE,51.356,-116.337,BC,-5.0,0.0,,5.0,0.0,-23.0,0.0,62.0,0.0,,62.0,0.0,,89.0,13.0,,,,643.2,0.0,117R00H,2631204.3101984104,1816531.1694584591,-1
246,CHARLIE LAKE,56.298,-121.017,BC,-8.0,2.0,,12.0,1.0,-30.0,2.0,23.0,1.0,,23.0,1.0,,70.0,5.0,,,,676.5,0.0,11814FR,2110812.2985461033,2748946.1652738294,-1
247,CHETWYND A,55.687,-121.627,BC,-5.9,0.0,1.3,11.7,0.0,-28.1,0.0,90.8,0.0,400.0,43.9,0.0,271.0,13.0,6.0,,,,669.2,0.0,1181508,2042983.425232448,2627469.9769464275,-1
248,DAWSON CREEK A,55.742,-120.183,BC,-8.6,0.0,,11.1,0.0,-29.2,0.0,,,,9.6,0.0,,,3.0,,,,744.4,0.0,1182289,2203548.823699526,2638326.5988465417,-1
249,FORT ST. JOHN A,56.238,-120.74,BC,-9.6,0.0,,9.7,0.0,-29.2,0.0,35.3,1.0,,37.6,1.0,,16.0,8.0,,,,771.5,0.0,1183001,2141613.27872296,2736931.783679407,3
250,MACKENZIE,55.299,-123.133,BC,-6.1,1.0,,7.3,1.0,-24.5,1.0,,,,38.0,1.0,,,2.0,,,,650.9,0.0,1184791,1875523.944559718,2551311.961733725,-1
251,MACKENZIE AIRPORT AUTO,55.305,-123.138,BC,-5.8,0.0,,7.5,0.0,-23.8,0.0,,,,49.1,0.0,,42.0,8.0,,,,665.0,0.0,1184793,1874967.9701882934,2552483.9745234624,-1
252,SIKANNI CHIEF,57.25,-122.718,BC,-8.0,6.0,,11.0,6.0,-34.2,6.0,68.0,6.0,,68.0,6.0,,26.0,6.0,,,,572.6,0.0,1187335,1921669.8173878598,2942149.542908429,-1
253,DEASE LAKE A,58.422,-130.031,BC,-11.2,0.0,,5.7,0.0,-34.7,0.0,,,,15.2,0.0,,,3.0,,,,816.5,0.0,1192341,1108501.701743986,3186980.0235804264,-1
254,FORT NELSON A,58.836,-122.597,BC,-14.7,0.0,,11.7,0.0,-37.5,0.0,40.1,0.0,,36.0,0.0,,46.0,9.0,,,,916.0,0.0,1192946,1935124.3971763072,3275411.2619416183,-1
255,FORT NELSON UA,58.841,-122.573,BC,-13.7,0.0,,11.5,0.0,-35.5,0.0,33.5,0.0,,33.5,0.0,,46.0,5.0,,,,888.7,0.0,1192950,1937793.0741591398,3276485.7079463108,-1
256,DEASE LAKE (AUT),58.426,-130.026,BC,-11.3,0.0,,5.7,0.0,-34.8,0.0,,,,9.7,0.0,,48.0,3.0,,,,819.2,0.0,119BLM0,1109057.676115409,3187829.440670985,-1
257,ATLIN,59.567,-133.7,BC,-8.8,0.0,1.9,7.5,0.0,-31.0,0.0,9.8,0.0,41.0,9.8,0.0,39.0,11.0,4.0,,,,750.6,0.0,1200560,700527.7079934927,3434168.825935318,-1
258,PLEASANT CAMP,59.45,-136.367,BC,-4.4,0.0,1.1,5.0,0.0,-22.0,0.0,29.0,0.0,26.0,71.4,0.0,51.0,0.0,11.0,,,,625.9,0.0,1206197,403970.9782762478,3408529.201279628,-1
260,BURWASH A,61.371,-139.04,YT,-15.9,0.0,,9.4,0.0,-42.9,0.0,,,,0.0,1.0,,,0.0,,,,948.5,0.0,2100181,106747.07931329482,3841265.182454127,-1
261,BURWASH A,61.367,-139.05,YT,-15.7,0.0,0.7,11.0,0.0,-43.5,0.0,2.0,0.0,19.0,0.2,0.0,3.0,5.0,0.0,,,,943.1,0.0,2100182,105635.13057044585,3840336.947281982,-1
262,BURWASH AIRPORT AUTO BC,61.367,-139.017,YT,-16.2,0.0,,9.7,0.0,-43.7,0.0,,,,0.4,0.0,,1.0,0.0,,,,956.9,0.0,2100184,109304.56142184205,3840336.947281982,-1
263,CARMACKS CS,62.115,-136.192,YT,-17.1,0.0,,10.6,0.0,-43.5,0.0,,,,5.8,0.0,,31.0,2.0,,,,982.2,0.0,2100301,423430.08127606515,4016019.774834999,-1
264,DAWSON A,64.043,-139.128,YT,-20.7,0.0,0.8,3.0,0.0,-47.1,0.0,15.2,0.0,84.0,15.8,0.0,123.0,46.0,3.0,,,,1083.5,0.0,2100402,96961.93037624356,4489718.034728124,-1
265,FARO A,62.207,-133.373,YT,-16.2,0.0,-0.8,6.8,0.0,-44.8,0.0,5.4,0.0,37.0,4.4,0.0,36.0,35.0,1.0,,,,958.0,0.0,2100517,736888.4318845832,4037925.954932845,-1
266,FARO (AUT),62.208,-133.376,YT,-16.4,0.0,,6.8,0.0,-44.8,0.0,,,,5.2,0.0,,,2.0,,,,963.2,0.0,2100518,736554.8472617276,4038164.4319371385,-1
267,HAINES JUNCTION,60.773,-137.58,YT,-12.6,0.0,,10.1,0.0,-38.9,0.0,,,,6.8,0.0,,24.0,2.0,,,,856.6,0.0,2100630,269091.5957689271,3703792.7480580816,-1
270,MACMILLAN PASS,63.244,-130.037,YT,-17.1,0.0,,2.4,0.0,-40.9,0.0,,,,12.2,2.0,,93.0,2.0,,,,982.0,0.0,2100693,1107834.532498278,4289582.236080122,-1
272,MAYO A,63.616,-135.868,YT,-18.5,0.0,,4.8,0.0,-48.2,0.0,18.4,0.0,,8.6,1.0,,32.0,3.0,,,,1023.3,0.0,2100701,459457.2205443032,4382061.5412809225,-1
273,MAYO ROAD,60.876,-135.183,YT,-14.2,0.0,-1.2,9.0,0.0,-43.5,0.0,6.0,0.0,43.0,6.0,0.0,43.0,0.0,2.0,,,,902.9,0.0,2100709,535625.70942931,3727286.910576462,-1
278,DAWSON,64.05,-139.133,YT,-20.8,0.0,,3.5,0.0,-47.1,0.0,,,,18.1,0.0,,42.0,3.0,,,,1085.8,0.0,2100LRP,96405.95600481749,4491496.5772479465,-1
279,TESLIN (AUT),60.167,-132.733,YT,-12.2,0.0,,6.5,0.0,-35.8,0.0,,,,5.8,0.0,,37.0,1.0,,,,846.1,0.0,2101102,808053.1514267777,3567072.910129995,-1
280,WATSON LAKE (AUT),60.118,-128.822,YT,-16.2,0.0,,7.1,0.0,-40.4,0.0,,,,13.8,0.0,,38.0,4.0,,,,956.7,0.0,2101204,1242936.304754166,3556128.6308261594,-1
281,WHITEHORSE A,60.709,-135.067,YT,-12.4,0.0,,7.8,0.0,-36.7,0.0,,,,,,,,,,,,851.4,0.0,2101303,548524.3148463315,3689232.4329214664,-1
282,WHITEHORSE AUTO,60.733,-135.098,YT,-12.0,0.0,,8.1,0.0,-35.6,0.0,,,,3.4,0.0,,34.0,1.0,,,,838.6,0.0,2101310,545077.2737435057,3694689.1497021364,-1
286,DEADMEN VALLEY,61.257,-124.468,NT,-18.4,0.0,,7.8,0.0,-44.4,0.0,,,,,,,38.0,,,,,1020.1,0.0,22010H0,1727078.7873896677,3814856.8700866913,-1
288,FORT LIARD,60.233,-123.467,NT,-15.7,0.0,,12.5,0.0,-35.8,0.0,,,,,,,,,,,,943.2,0.0,2201579,1838384.8565486341,3581840.010940523,-1
289,FORT PROVIDENCE,61.317,-117.602,NT,-21.2,0.0,,1.1,0.0,-38.0,0.0,,,,,,,,,,,,1096.7,0.0,2201799,2490542.794228289,3828744.0105702067,-1
290,FORT RELIANCE (AUT),62.711,-109.168,NT,-28.6,0.0,,-8.0,0.0,-41.7,0.0,,,,13.7,2.0,,36.0,2.0,,,,1304.1,0.0,2201903,3428360.3639452895,4159132.1817952925,-1
291,FORT SIMPSON CLIMATE,61.76,-121.237,NT,-20.8,0.0,,-0.4,0.0,-38.8,0.0,,,,27.3,0.0,,46.0,9.0,,,,1087.1,0.0,2202102,2086349.4262034735,3932108.637877659,-1
292,FORT SIMPSON A,61.76,-121.237,NT,-20.8,0.0,,-0.9,0.0,-38.5,0.0,33.3,0.0,,39.0,0.0,,64.0,11.0,,,,1086.2,0.0,2202103,2086349.4262034735,3932108.637877659,-1
293,FORT SMITH A,60.02,-111.962,NT,-23.1,0.0,,-4.8,0.0,-38.1,0.0,23.1,0.0,,12.2,0.0,,35.0,4.0,,,,1150.9,0.0,2202201,3117681.8851938904,3534288.846018822,-1
294,FORT SMITH CLIMATE,60.026,-111.929,NT,-22.8,0.0,,-4.7,0.0,-37.5,0.0,,,,11.1,0.0,,45.0,3.0,,,,1142.4,0.0,2202202,3121351.316045285,3535624.11301954,-1
295,HANBURY RIVER,63.6,-105.133,NT,-31.2,0.0,,-11.6,0.0,-42.5,0.0,,,,2.1,2.0,,39.0,0.0,,,,1376.9,0.0,2202351,3877031.681683979,4378059.117035269,-1
296,HAY RIVER A,60.84,-115.783,NT,-21.4,0.0,,-2.5,0.0,-39.0,0.0,16.2,1.0,,13.4,1.0,,56.0,5.0,,,,1104.0,0.0,2202401,2692806.270552124,3719066.756089558,-1
297,HAY RIVER CLIMATE,60.839,-115.777,NT,-21.0,0.0,,-2.3,0.0,-37.6,0.0,,,,28.8,0.0,,33.0,12.0,,,,1092.1,0.0,2202402,2693473.439797832,3718838.5506374585,-1
298,INNER WHALEBACKS,61.92,-113.726,NT,-24.6,0.0,,-5.7,0.0,-36.1,0.0,,,,7.9,7.0,,,4.0,,,,1192.2,0.0,2202560,2921534.1269557136,3969807.0741949817,-1
300,LAC LA MARTRE,63.134,-117.245,NT,-25.8,0.0,,-3.5,0.0,-39.6,0.0,,,,,,,,,,,,1226.9,0.0,2202678,2530239.36434792,4262464.438313612,-1
305,RABBIT KETTLE,61.963,-127.209,NT,-12.6,20.0,,-0.6,20.0,-42.6,18.0,,,,,,,,,,,,244.5,0.0,2203342,1422293.6369753566,3979972.160830333,-1
306,RAE LAKES,64.112,-117.328,NT,-24.7,0.0,,-1.6,0.0,-38.6,0.0,,,,,,,,,,,,1194.5,0.0,2203359,2521010.189782291,4507268.904637621,-1
308,YELLOWKNIFE A,62.463,-114.44,NT,-25.9,0.0,,-4.9,0.0,-41.5,0.0,18.6,0.0,,13.8,0.0,,37.0,6.0,,,,1229.7,0.0,2204101,2842140.986716451,4099235.4879946476,-1
309,YELLOWKNIFE-HENDERSON,62.45,-114.383,NT,-26.1,0.0,,-4.5,0.0,-42.0,0.0,9.0,0.0,,9.0,0.0,,45.0,5.0,,,,1234.0,0.0,2204110,2848479.0945506785,4096109.482619296,-1
310,YOHIN,61.242,-123.742,NT,-17.9,1.0,,11.4,1.0,-39.2,0.0,,,,,,,55.0,,,,,969.6,0.0,2204300,1807806.266120346,3811389.2285782015,-1
313,LUTSELK'E CS,62.416,-110.69,NT,-27.9,0.0,,-6.9,0.0,-41.7,0.0,,,,,,,33.0,,,,,1285.1,0.0,220L002,3259121.7652840056,4087940.1993386215,-1
314,LINDBURG LANDING,61.125,-122.851,NT,-24.4,23.0,,-0.7,23.0,-37.3,23.0,,,,2.9,23.0,,71.0,1.0,,,,212.0,0.0,220N003,1906880.8991079978,3784398.2426636377,-1
316,ARVIAT A,61.094,-94.072,NU,-31.5,2.0,,-13.6,2.0,-39.1,2.0,,,,23.1,2.0,,,4.0,,,,1287.4,0.0,2300427,5106958.186146837,3777263.5378949353,-1
317,BAKER LAKE CLIMATE,64.317,-96.0,NU,-33.5,0.0,,-14.3,0.0,-40.3,0.0,,,,2.5,0.0,,3.0,0.0,,,,1442.8,0.0,2300501,4892574.468525972,4559670.9640265955,-1
318,BAKER LAKE A,64.299,-96.078,NU,-33.1,0.0,,-14.1,0.0,-40.4,0.0,6.6,0.0,,6.8,1.0,,54.0,1.0,,,,1430.1,0.0,2300503,4883901.268331766,4555054.229920634,-1
322,CORAL HARBOUR A,64.193,-83.359,NU,-34.1,0.0,-4.4,-21.8,0.0,-43.7,0.0,3.6,0.0,51.0,3.2,0.0,46.0,36.0,2.0,,,,1459.3,0.0,2301000,6298188.874358627,4527927.757945371,-1
323,CORAL HARBOUR RCS,64.333,-83.617,NU,-33.9,1.0,,-21.6,1.0,-42.6,0.0,,,,5.2,3.0,,22.0,2.0,,,,1401.0,0.0,2301010,6269500.5967931785,4563777.26029848,-1
324,ARVIAT CLIMATE,61.1,-94.067,NU,-31.7,0.0,,-13.5,0.0,-39.3,0.0,,,,12.4,0.0,,,4.0,,,,1392.8,0.0,2301153,5107514.160518262,3778643.902661382,-1
330,RANKIN INLET A,62.811,-92.115,NU,-33.6,0.0,,-17.7,0.0,-40.0,0.0,12.5,0.0,,10.9,1.0,,51.0,3.0,,,,1443.7,0.0,2303405,5324566.555121959,4183426.306938947,-1
331,SANIKILUAQ,56.537,-79.26,NU,-29.0,0.0,,-16.7,0.0,-35.8,0.0,,,,1.4,10.0,,,1.0,,,,1317.2,0.0,2303668,6753976.664051535,2796991.5423989072,-1
337,BREVOORT ISLAND,63.34,-64.146,NU,-25.6,3.0,,-16.1,2.0,-32.9,1.0,,,,,,,,,,,,1091.0,0.0,2400565,8434575.993990205,4313333.193710157,-1
344,CAPE DORSET CLIMATE,64.231,-76.53,NU,-28.6,0.0,,-20.8,0.0,-35.8,0.0,,,,5.1,0.0,,,1.0,,,,1304.2,0.0,2400636,7057538.670848714,4537640.385324505,-1
345,CAPE DORSET A,64.23,-76.525,NU,-28.5,1.0,,-20.7,1.0,-35.5,1.0,,,,9.7,1.0,,,2.0,,,,1254.7,0.0,2400637,7058094.645220137,4537384.618975404,-1
351,CAPE MERCY,64.958,-63.578,NU,-27.4,2.0,,-15.4,1.0,-35.5,1.0,,,,,,,,,,,,1181.4,0.0,2400F63,8497734.682583904,4726078.399335724,-1
359,IQALUIT AWOS,63.75,-68.55,NU,-31.9,0.0,,-18.1,0.0,-38.9,0.0,,,,,,,,,,,,1397.2,0.0,2402591,7944873.7676404705,4415670.598937905,-1
360,IQALUIT CLIMATE,63.747,-68.544,NU,-32.1,1.0,,-18.0,1.0,-39.6,0.0,,,,5.1,1.0,,16.0,1.0,,,,1352.7,0.0,2402592,7945540.936886178,4414916.415251075,-1
368,RESOLUTION ISLAND,61.6,-64.633,NU,-25.3,2.0,,-16.3,1.0,-31.3,1.0,,,,,,,,,,,,1125.5,0.0,2403602,8380424.090213567,3894605.700875479,-1
377,ABEE AGDM,54.283,-112.967,AB,-13.6,0.0,,6.4,0.0,-29.8,0.0,,,,19.5,3.0,,,7.0,,,,884.0,0.0,3010010,3005931.0365377865,2355354.4068168243,3
378,ALBERT HALL AGCM,53.113,-111.181,AB,-13.3,0.0,,4.9,0.0,-32.4,0.0,,,,19.6,0.0,,,4.0,,,,876.4,0.0,3010060,3204525.0820102273,2135591.6309777964,3
379,ALLIANCE AGCM,52.315,-111.779,AB,-11.2,0.0,,6.1,0.0,-26.4,0.0,,,,20.0,0.0,,,8.0,,,,816.5,0.0,3010162,3138030.547187988,1989111.6400856785,3
380,ANDREW AGDM,53.917,-112.279,AB,-13.2,1.0,,4.9,0.0,-29.5,1.0,,,,12.9,5.0,,,4.0,,,,843.2,0.0,3010237,3082433.1100456472,2285948.5816260055,3
381,BELLSHILL AGCM,52.582,-111.465,AB,-11.8,0.0,,5.0,0.0,-26.5,0.0,,,,18.0,1.0,,,5.0,,,,833.1,0.0,3010650,3172945.737713377,2037824.3585253898,3
382,BODO AGDM,52.124,-110.101,AB,-12.7,0.0,,5.0,0.0,-27.7,0.0,,,,25.1,0.0,,,5.0,,,,859.1,0.0,3010730,3324615.546237683,1954444.740253862,3
383,BRETON,53.167,-114.483,AB,-8.3,0.0,,12.0,0.0,-24.0,0.0,26.0,0.0,,0.0,0.0,,32.0,0.0,,,,737.0,0.0,3010815,2837359.6071222094,2145601.4770556465,3
384,BRETON PLOTS,53.089,-114.441,AB,-7.5,0.0,,12.8,0.0,-24.2,0.0,,,,21.4,0.0,,,10.0,,,,715.1,0.0,3010816,2842029.791842166,2131146.845482815,3
385,BUSBY,53.997,-113.889,AB,-11.1,5.0,,8.5,4.0,-23.0,4.0,28.0,1.0,,30.0,1.0,,28.0,11.0,,,,669.5,0.0,3010978,2903409.3624473107,2301067.0564831095,3
386,BUSBY AGCM,53.931,-113.922,AB,-10.3,0.0,,8.4,0.0,-27.1,0.0,,,,26.5,0.0,,,11.0,,,,791.4,0.0,3010979,2899739.931595916,2288592.22175661,3
387,CADOGAN AGCM,52.334,-110.51,AB,-12.9,1.0,,4.8,1.0,-26.1,1.0,,,,17.1,10.0,,,4.0,,,,834.7,0.0,3010992,3279136.8426552475,1992568.3512737788,3
388,CAMROSE,53.035,-112.814,AB,-10.8,0.0,-1.1,7.2,0.0,-26.5,0.0,,,,12.7,1.0,,2.0,4.0,,,,806.1,0.0,3011240,3022943.8523033434,2121155.1330577033,3
389,CAMROSE 2,52.95,-112.8,AB,-18.5,27.0,,6.0,24.0,-25.0,24.0,0.0,11.0,,0.0,11.0,,0.0,0.0,,,,36.5,0.0,3011241,3024500.5805433285,2105452.755408611,-1
390,CARNWOOD,53.234,-114.654,AB,-7.3,0.0,,12.0,0.0,-26.5,0.0,34.0,0.0,,34.0,0.0,,15.0,7.0,,,,709.4,0.0,3011350,2818345.2836195296,2158038.6255158195,3
391,CONSORT AGDM,51.937,-110.713,AB,-12.7,0.0,,4.9,0.0,-28.6,0.0,,,,14.9,4.0,,,5.0,,,,858.5,0.0,3011815,3256564.283175458,1920647.4961309647,3
392,CORONATION CLIMATE,52.074,-111.449,AB,-12.7,0.0,,5.0,0.0,-30.7,0.0,,,,16.2,0.0,,7.0,7.0,,,,858.6,0.0,3011887,3174724.8557019327,1945394.188771383,3
393,CRESTOMERE AGCM,52.733,-113.903,AB,-9.2,1.0,,10.5,1.0,-29.7,1.0,,,,16.6,4.0,,,5.0,,,,733.2,0.0,3011892,2901852.634207324,2065504.9529475356,-1
394,DAKOTA WEST,52.75,-113.95,AB,-7.7,7.0,-0.1,11.5,7.0,-28.0,7.0,19.4,7.0,,19.4,7.0,,16.0,6.0,,,,540.3,0.0,3011953,2896626.4751159446,2068627.3104051491,-1
395,DELBURNE AGCM,52.183,-113.176,AB,-8.6,0.0,,9.0,0.0,-24.0,0.0,,,,13.3,0.0,,,6.0,,,,744.0,0.0,3012050,2982691.307812288,1965137.461124057,3
396,DEWBERRY AGCM,53.659,-110.588,AB,-15.2,8.0,,3.0,8.0,-31.8,7.0,,,,18.9,10.0,,,5.0,,,,663.5,0.0,3012073,3270463.642461044,2237387.947654986,3
397,DONALDA SOUTH,52.517,-112.351,AB,-10.7,0.0,,6.5,0.0,-31.0,0.0,25.0,0.0,,25.0,0.0,,21.0,8.0,,,,802.4,0.0,3012095,3074427.07909715,2025938.2275352245,3
398,EDGERTON AGCM,52.778,-110.433,AB,-13.8,0.0,,4.6,0.0,-31.6,0.0,,,,18.8,1.0,,,4.0,,,,889.8,0.0,3012192,3287698.847975168,2073772.6737257438,3
399,EDMONTON CITY CENTRE AWOS,53.572,-113.519,AB,-8.9,0.0,,8.3,0.0,-22.3,0.0,,,,17.0,0.0,,,6.0,,,,754.1,0.0,3012202,2944551.4659326416,2221079.8894151747,3
400,EDMONTON INTERNATIONAL CS,53.307,-113.606,AB,-10.4,0.0,,7.4,0.0,-28.5,0.0,,,,11.6,0.0,,9.0,3.0,,,,794.1,0.0,3012206,2934877.5118698757,2171611.726183544,3
401,EDMONTON MUNICIPAL CR10,53.573,-113.517,AB,-9.0,0.0,,8.1,0.0,-21.6,0.0,,,,,,,,,,,,755.3,0.0,3012209,2944773.855681212,2221267.1476029037,3
402,EDMONTON NAMAO AWOS A,53.667,-113.467,AB,-10.5,1.0,,8.3,1.0,-25.1,1.0,,,,17.5,2.0,,,6.0,,,,770.7,0.0,3012212,2950333.599395446,2238889.2281665904,3
403,EDMONTON INTL A,53.31,-113.579,AB,-10.5,0.0,,6.8,0.0,-28.4,0.0,15.0,1.0,,22.0,2.0,,17.0,3.0,,,,797.2,0.0,3012216,2937879.773475562,2172170.0210197307,3
404,EDMONTON VILLENEUVE A,53.668,-113.856,AB,-9.4,1.0,,8.2,1.0,-26.0,1.0,,,,9.9,1.0,,,2.0,,,,739.6,0.0,3012229,2907078.7932987055,2239076.9082698487,3
405,EDMONTON STONY PLAIN,53.548,-114.108,AB,-8.3,0.0,-0.9,10.0,0.0,-21.5,0.0,33.2,0.0,212.0,24.2,0.0,166.0,7.0,5.0,,,,737.4,0.0,301222F,2879057.6849789647,2216587.0208144514,3
406,EDMONTON WOODBEND,53.417,-113.75,AB,-9.2,0.0,-0.6,10.0,0.0,-26.5,0.0,28.8,0.0,205.0,28.9,0.0,202.0,22.0,8.0,,,,760.8,0.0,3012230,2918865.449972881,2192108.244694083,3
407,ELK ISLAND NAT PARK,53.683,-112.868,AB,-10.7,0.0,-1.4,9.4,0.0,-28.4,0.0,,,,24.9,0.0,220.0,26.0,5.0,,,,803.0,0.0,3012275,3016939.3290919703,2241892.644458132,3
408,FABYAN,52.967,-111.0,AB,-14.0,0.0,-2.5,5.5,0.0,-30.0,0.0,23.7,0.0,229.0,24.7,0.0,235.0,0.0,7.0,,,,895.9,0.0,3012515,3224651.354255754,2108590.7597851576,3
409,FERINTOSH AGCM,52.744,-112.858,AB,-10.6,1.0,,6.0,1.0,-29.4,0.0,,,,14.8,5.0,,,6.0,,,,772.2,0.0,3012590,3018051.277834816,2067525.1628120309,3
410,FORESTBURG PLANT SITE,52.467,-112.12,AB,-9.0,2.0,-1.6,8.5,2.0,-25.0,2.0,26.8,2.0,,27.2,2.0,,0.0,7.0,,,,702.8,0.0,3012652,3100113.095056911,2016807.0099739907,3
411,FORESTBURG AGCM,52.548,-112.123,AB,-11.1,0.0,,6.4,0.0,-26.5,0.0,,,,14.7,0.0,,,7.0,,,,815.2,0.0,3012653,3099779.5104340566,2031604.8018683223,3
412,FORT SASKATCHEWAN,53.717,-113.183,AB,-7.6,6.0,1.8,8.0,6.0,-25.0,6.0,15.0,6.0,,21.6,6.0,,0.0,7.0,,,,562.2,0.0,3012710,2981912.9436922944,2248278.694840356,3
413,GILT EDGE NORTH AGCM,53.071,-110.621,AB,-13.3,0.0,,4.5,0.0,-29.4,0.0,,,,20.0,9.0,,,4.0,,,,876.1,0.0,3012790,3266794.211609649,2127814.8827685714,3
414,GLENEVIS AGCM,53.833,-114.539,AB,-7.9,0.0,,10.0,0.0,-21.8,0.0,,,,,,,,,,,,725.1,0.0,3012818,2831132.6941622673,2270105.3256111806,3
415,HALKIRK AGCM,52.116,-112.164,AB,-14.0,13.0,,5.4,13.0,-30.0,11.0,,,,8.4,17.0,,,3.0,,,,479.7,0.0,3012999,3095220.520588385,1952995.9700343143,3
416,HEMARUKA AGCM,51.78,-111.212,AB,-12.2,0.0,,5.3,0.0,-30.8,0.0,,,,10.7,1.0,,,5.0,,,,845.6,0.0,3013140,3201078.0409074016,1892380.8877517972,3
417,HOLDEN AGDM,53.185,-112.246,AB,-11.9,0.0,,6.6,0.0,-27.6,0.0,,,,,,,,,,,,838.0,0.0,3013340,3086102.540897042,2148940.8912018193,3
418,HUGHENDEN AGCM,52.578,-110.784,AB,-12.7,1.0,,4.6,1.0,-27.6,0.0,,,,14.4,6.0,,,3.0,,,,829.2,0.0,3013362,3248669.4471012447,2037092.3956779307,3
419,KILLAM AGDM,52.848,-111.872,AB,-12.0,0.0,,5.1,0.0,-27.6,0.0,,,,29.5,7.0,,,12.0,,,,840.1,0.0,3013640,3127689.423879512,2086650.5803571716,3
420,KESSLER AGCM,52.29,-111.113,AB,-12.3,0.0,,5.9,0.0,-30.0,0.0,,,,18.0,11.0,,,4.0,,,,847.0,0.0,3013644,3212086.3334615855,1984565.5959715825,3
421,KITSCOTY AGCM,53.353,-110.416,AB,-13.3,5.0,,3.6,4.0,-24.1,4.0,,,,2.9,20.0,,,0.0,,,,719.9,0.0,3013660,3289589.1608380084,2180176.561800557,3
422,LEGAL AGCM,54.003,-113.474,AB,-11.8,13.0,,4.3,13.0,-23.1,11.0,,,,1.4,22.0,,,1.0,,,,446.9,0.0,3013790,2949555.2352754525,2302202.112601931,3
423,LINDBERGH AGDM,53.943,-110.579,AB,-14.7,0.0,,5.9,0.0,-32.7,0.0,,,,17.4,4.0,,,5.0,,,,916.0,0.0,3013921,3271464.396329606,2290858.9049568037,3
424,LLOYDMINSTER,53.309,-110.073,AB,-13.9,2.0,,4.5,2.0,-27.3,1.0,,,,8.7,2.0,,,3.0,,,,830.0,0.0,3013959,3327729.002717654,2171983.918382045,3
425,LLOYDMINSTER A,53.309,-110.073,AB,-14.2,0.0,-2.5,4.4,0.0,-27.3,0.0,28.4,0.0,289.0,28.6,0.0,291.0,22.0,7.0,,,,902.2,0.0,3013961,3327729.002717654,2171983.918382045,3
426,MANNVILLE AGCM,53.456,-111.255,AB,-13.1,0.0,,5.7,0.0,-27.6,0.0,,,,19.1,0.0,,,4.0,,,,872.1,0.0,3014195,3196296.6613131613,2199387.921541391,3
427,MUNDARE AGDM,53.567,-112.3,AB,-11.3,7.0,,5.3,7.0,-24.8,7.0,,,,25.3,12.0,,1.0,11.0,,,,614.9,0.0,3014665,3080098.017685669,2220143.664897075,3
428,MYRNAM AGCM,53.72,-111.114,AB,-14.1,0.0,,6.5,0.0,-34.5,0.0,,,,13.8,1.0,,,3.0,,,,898.5,0.0,3014690,3211975.1385873,2248842.417652542,3
429,NEW SEREPTA AGCM,53.262,-113.165,AB,-10.5,0.0,,6.8,0.0,-25.0,0.0,,,,20.6,1.0,,,9.0,,,,797.2,0.0,3014795,2983914.4514294188,2163242.0069035003,3
430,OLIVER AGDM,53.65,-113.35,AB,-10.1,0.0,,8.3,0.0,-26.8,0.0,,,,,,,,,,,,786.0,0.0,3014921,2963343.399686754,2235699.347624461,3
431,RADWAY AGCM,53.995,-112.879,AB,-12.2,0.0,,7.4,0.0,-28.8,0.0,,,,,,,,,,,,846.0,0.0,3015346,3015716.1854748377,2300688.7407955155,3
432,RANFURLY AUTO,53.425,-111.726,AB,-12.8,0.0,,4.4,0.0,-27.0,0.0,,,,26.0,0.0,,12.0,6.0,,,,861.8,0.0,3015401,3143923.875525076,2193600.9671975086,3
433,RIBSTONE SOUTH AGCM,52.587,-110.343,AB,-13.1,0.0,,5.1,0.0,-28.4,0.0,,,,23.8,7.0,,,5.0,,,,870.4,0.0,3015480,3297706.386660789,2038739.4060190292,3
434,RIVERCOURSE AGCM,53.019,-110.102,AB,-14.3,0.0,,4.0,0.0,-28.6,0.0,,,,12.7,7.0,,,2.0,,,,904.3,0.0,3015501,3324504.3513633977,2118197.028954643,3
435,ROCKY MTN HOUSE (AUT),52.421,-114.912,AB,-8.5,5.0,,11.8,5.0,-29.2,5.0,,,,16.0,5.0,,34.0,8.0,,,,609.5,0.0,3015523,2789657.0060540806,2008415.4462109087,-1
436,ROSALIND AGCM,52.78,-112.428,AB,-11.1,0.0,,6.0,0.0,-26.4,0.0,,,,13.3,1.0,,,7.0,,,,813.7,0.0,3015600,3065865.07377723,2074140.326314574,3
437,ST. LINA AGCM,54.282,-111.453,AB,-13.2,0.0,,7.1,0.0,-28.7,0.0,,,,14.2,2.0,,,3.0,,,,872.6,0.0,3015673,3174280.0762047935,2355163.9358894685,3
438,ST. PAUL AGCM,54.011,-111.272,AB,-15.0,0.0,,6.0,0.0,-31.1,0.0,,,,17.3,1.0,,,4.0,,,,924.4,0.0,3015676,3194406.3484503203,2303715.775306873,3
439,SEDALIA AGCM,51.59,-110.755,AB,-12.5,0.0,,4.6,0.0,-30.0,0.0,,,,5.6,9.0,,,1.0,,,,855.3,0.0,3015797,3251894.0984555017,1858304.119685715,3
440,SHONTS AGCM,53.333,-112.539,AB,-11.6,0.0,,7.4,0.0,-28.4,0.0,,,,23.8,2.0,,,8.0,,,,827.8,0.0,3015900,3053522.4427316296,2176451.585382807,3
441,SMOKY LAKE AGDM,54.278,-112.499,AB,-12.5,0.0,,7.2,0.0,-25.7,0.0,,,,22.2,1.0,,,8.0,,,,854.7,0.0,3016022,3057970.237703018,2354402.0984091545,3
442,SPONDIN AGCM,51.816,-111.683,AB,-11.6,0.0,,5.7,0.0,-29.5,0.0,,,,8.2,9.0,,,4.0,,,,828.0,0.0,3016070,3148705.2551193163,1898853.6947607165,3
443,STETTLER AGDM,52.347,-112.596,AB,-10.3,0.0,,6.2,0.0,-24.8,0.0,,,,18.2,0.0,,,6.0,,,,791.9,0.0,3016124,3047184.3348974027,1994934.3251299504,3
444,THORSBY AGCM,53.217,-113.895,AB,-9.5,0.0,,8.7,0.0,-26.7,0.0,,,,6.2,11.0,,,1.0,,,,768.6,0.0,3016441,2902742.1932016024,2154881.08990959,3
445,TOMAHAWK AGDM,53.439,-114.718,AB,-8.0,1.0,,11.6,1.0,-22.6,0.0,,,,33.8,3.0,,,12.0,,,,702.5,0.0,3016505,2811228.811665309,2196213.9076347733,3
446,TULLIBY LAKE AGCM,53.664,-110.081,AB,-15.1,0.0,,5.7,0.0,-34.2,0.0,,,,17.6,3.0,,,5.0,,,,927.4,0.0,3016593,3326839.443723376,2238326.214578579,3
447,TWO HILLS AGDM,53.625,-111.678,AB,-11.9,5.0,,4.1,5.0,-24.1,5.0,,,,13.7,10.0,,,4.0,,,,686.6,0.0,3016655,3149261.2294907407,2231010.6823051833,3
448,VERMILION AGDM,53.344,-110.882,AB,-13.5,0.0,,4.2,0.0,-31.8,0.0,,,,18.0,3.0,,,4.0,,,,883.1,0.0,3016802,3237772.349421346,2178500.1061959164,3
449,VIKING AGCM,53.182,-111.732,AB,-12.3,1.0,,4.9,1.0,-26.8,1.0,,,,16.4,2.0,,,5.0,,,,818.2,0.0,3016841,3143256.7062793677,2148384.2248639297,3
450,VIKING NORTH 3,53.283,-111.767,AB,-13.4,2.0,,6.5,1.0,-28.5,1.0,27.0,1.0,,27.0,1.0,,40.0,8.0,,,,816.4,0.0,3016845,3139364.8856794043,2167146.779063697,3
451,VILNA AGCM,54.13,-111.921,AB,-13.3,0.0,,7.3,0.0,-31.7,0.0,,,,14.3,0.0,,,3.0,,,,875.1,0.0,3016852,3122240.875039562,2326265.948630362,3
452,VIOLET GROVE CS,53.144,-115.126,AB,-6.9,0.0,,12.6,0.0,-23.7,0.0,,,,,,,32.0,,,,,697.8,0.0,3016860,2765861.302957159,2141336.4855870875,3
453,VEGREVILLE,53.505,-112.098,AB,-12.7,0.0,-1.9,5.4,0.0,-30.4,0.0,,,,68.4,3.0,,,15.0,,,,860.4,0.0,3016GF0,3102559.3822911745,2208543.665375228,3
454,WETASKIWIN AGCM,52.98,-113.444,AB,-10.3,0.0,,8.3,0.0,-29.6,0.0,,,,11.2,8.0,,,3.0,,,,792.2,0.0,3017282,2952891.081503993,2110991.2429756643,3
455,EDMONTON STONY PLAIN CS,53.547,-114.108,AB,-8.6,0.0,,9.9,0.0,-21.7,0.0,,,,25.5,0.0,,16.0,4.0,,,,744.6,0.0,301A001,2879057.6849789647,2216399.873256607,3
456,ESTHER 1,51.67,-110.206,AB,-12.0,0.0,,6.1,0.0,-28.1,0.0,,,,13.5,0.0,,,4.0,,,,840.3,0.0,301B460,3312940.084437791,1872634.807069757,3
457,UNIVERSITY OF ALBERTA METABOLIC CENTRE,53.517,-113.533,AB,-8.5,11.0,0.0,10.0,7.0,-21.0,7.0,39.6,0.0,400.0,39.6,0.0,400.0,0.0,9.0,,,,450.2,0.0,301FFNJ,2942994.7376926565,2210787.501433718,3
458,WAINWRIGHT CFB AIRFIELD 21,52.829,-111.096,AB,-13.2,0.0,,4.6,0.0,-28.0,0.0,,,,14.4,9.0,,2.0,5.0,,,,874.4,0.0,301S001,3213976.6463244245,2083153.097418922,3
459,ACADIA VALLEY,51.066,-110.317,AB,-11.2,0.0,,7.7,0.0,-29.6,0.0,,,,12.4,0.0,,,4.0,,,,816.7,0.0,3020035,3300597.4533921923,1765056.2879905365,3
460,ATLEE AGCM,50.81,-111.006,AB,-9.4,0.0,,7.2,0.0,-28.0,0.0,,,,6.1,5.0,,,3.0,,,,767.0,0.0,3020405,3223984.185010046,1719883.7296920205,3
461,BEISEKER AGCM,51.379,-113.357,AB,-8.2,0.0,,10.3,0.0,-28.0,0.0,,,,4.4,0.0,,,1.0,,,,733.2,0.0,3020610,2962565.0355667607,1820627.5794895086,-1
462,BIG VALLEY AGCM,51.998,-112.803,AB,-9.4,0.0,,7.6,0.0,-25.7,0.0,,,,32.3,5.0,,,13.0,,,,766.7,0.0,3020679,3024166.995920474,1931656.7424361184,3
463,CRAIGMYLE AGCM,51.775,-112.252,AB,-10.3,0.0,,7.3,0.0,-26.1,0.0,,,,5.0,5.0,,,3.0,,,,792.4,0.0,3021912,3085435.3716513338,1891482.295318664,3
464,CRAIGMYLE,51.767,-112.283,AB,-10.3,0.0,-1.5,8.5,0.0,-26.0,0.0,25.9,0.0,208.0,25.9,0.0,206.0,0.0,8.0,,,,792.1,0.0,3021940,3081988.330548508,1890044.7544886041,3
465,DRUMHELLER EAST,51.445,-112.677,AB,-8.9,0.0,,10.6,0.0,-28.7,0.0,,,,,,,,,,,,754.5,0.0,30221LG,3038177.550080343,1832393.935553722,-1
466,HESPERO AGCM,52.31,-114.486,AB,-9.0,0.0,,12.6,0.0,-29.2,0.0,,,,15.3,1.0,,,8.0,,,,755.0,0.0,3023200,2837026.022499355,1988202.2258973997,-1
467,HUSSAR AGDM,51.183,-112.5,AB,-8.2,0.0,,12.6,0.0,-20.9,0.0,,,,4.3,5.0,,,2.0,,,,734.0,0.0,3023402,3057859.0428287326,1785784.7505663019,-1
468,LACOMBE CDA 2,52.449,-113.756,AB,-9.0,0.0,,11.6,0.0,-27.5,0.0,,,,18.5,0.0,,,5.0,,,,756.9,0.0,3023722,2918198.2807271727,2013522.3109586807,-1
469,LEEDALE AGDM,52.553,-114.473,AB,-9.6,0.0,,8.5,0.0,-30.0,0.0,,,,12.4,3.0,,2.0,5.0,,,,772.9,0.0,3023740,2838471.555865057,2032519.1402564356,3
470,LINDEN AGCM,51.619,-113.656,AB,-8.7,0.0,,10.3,0.0,-31.7,0.0,,,,18.4,2.0,,,7.0,,,,748.5,0.0,3023850,2929317.7681556405,1863496.07429195,-1
471,MORRIN AGDM,51.66,-112.675,AB,-9.7,0.0,,6.8,0.0,-25.5,0.0,,,,10.0,0.0,,,4.0,,,,775.5,0.0,3024668,3038399.9398289137,1870842.0882409746,3
472,OLDS AGDM,51.759,-114.085,AB,-7.5,0.0,,10.5,0.0,-22.1,0.0,,,,5.9,11.0,,,3.0,,,,715.0,0.0,3024925,2881615.1670875135,1888607.4684016975,-1
473,OYEN AGDM,51.383,-110.35,AB,-11.6,0.0,,5.5,0.0,-25.8,0.0,,,,7.7,6.0,,,2.0,,,,830.0,0.0,3024965,3296928.0225407975,1821340.2087177904,3
474,POLLOCKVILLE AGDM,51.125,-111.705,AB,-10.7,0.0,,7.2,0.0,-31.9,0.0,,,,5.1,0.0,,,2.0,,,,804.3,0.0,3025243,3146258.967885054,1775502.5398775702,3
475,PRENTISS,52.433,-113.6,AB,-8.7,1.0,,9.1,1.0,-22.4,1.0,,,,4.3,16.0,,,1.0,,,,721.1,0.0,3025297,2935544.681115584,2010603.7052231124,3
476,RED DEER REGIONAL A,52.182,-113.894,AB,-9.2,0.0,,8.5,0.0,-30.4,0.0,17.2,0.0,,20.0,0.0,,6.0,6.0,,,,762.0,0.0,3025481,2902853.3880758863,1964956.1104416018,3
477,SCHULER AGDM,50.307,-110.091,AB,-8.1,0.0,,10.2,0.0,-27.1,0.0,,,,13.0,7.0,,,4.0,,,,731.1,0.0,3025768,3325727.49498053,1631842.4758889833,-1
478,SIBBALD WESTGARD,51.425,-110.146,AB,-12.3,4.0,,4.5,4.0,-31.0,4.0,14.0,4.0,,14.0,4.0,,5.0,3.0,,,,726.6,0.0,3025928,3319611.776894872,1828826.5789217586,3
479,THREE HILLS,51.768,-113.206,AB,-9.3,0.0,,8.6,0.0,-31.0,0.0,,,,9.3,5.0,,,4.0,,,,764.6,0.0,3026479,2979355.461583747,1890224.4331586668,-1
480,SUNDRE A,51.778,-114.683,AB,-7.1,0.0,,13.7,0.0,-28.0,0.0,,,,10.2,0.0,,10.0,2.0,,,,701.4,0.0,3026KNQ,2815120.6322652726,1892021.4388300618,-1
481,WIMBORNE AGCM,51.936,-113.591,AB,-8.3,0.0,,9.1,0.0,-27.5,0.0,,,,3.6,18.0,,,1.0,,,,736.7,0.0,3027582,2936545.434984146,1920467.1414457234,3
482,AZURE,50.512,-114.013,AB,-4.0,0.0,,16.2,0.0,-20.5,0.0,,,,7.3,2.0,,,3.0,,,,615.3,0.0,3030450,2889621.1980360094,1667610.7670658184,4
483,BARNWELL AGDM,49.8,-112.3,AB,-3.7,0.0,,16.8,0.0,-22.1,0.0,,,,4.9,8.0,,,2.0,,,,606.7,0.0,3030525,3080098.017685669,1544038.4498434775,4
484,BARONS AGCM,50.026,-113.224,AB,-4.2,0.0,,16.3,0.0,-23.7,0.0,,,,4.3,2.0,,,2.0,,,,620.2,0.0,3030529,2977353.9538466227,1583063.3766346117,4
485,BASSANO AGCM,50.893,-112.465,AB,-8.4,0.0,,9.9,0.0,-29.7,0.0,,,,3.6,1.0,,,1.0,,,,740.5,0.0,3030540,3061750.863428696,1734502.2990087308,-1
486,BLACK DIAMOND,50.707,-114.152,AB,-4.9,0.0,,16.3,0.0,-24.1,0.0,,,,2.8,13.0,,,1.0,,,,639.8,0.0,3030680,2874165.110510439,1701778.6849010773,4
487,BLOOD TRIBE AGDM,49.567,-113.05,AB,-2.9,1.0,,14.9,0.0,-22.4,1.0,,,,2.9,10.0,,,1.0,,,,563.8,0.0,3030720,2996701.8619721583,1503995.0227583973,4
488,BOW ISLAND,49.734,-111.45,AB,-4.8,0.0,,14.8,0.0,-23.7,0.0,,,,9.7,1.0,,,4.0,,,,637.1,0.0,3030768,3174613.6608276474,1532676.1775130704,4
489,BOW ISLAND IRRIGATION AGDM,49.867,-111.383,AB,-4.9,0.0,,14.8,0.0,-22.2,0.0,,,,11.6,3.0,,,5.0,,,,640.4,0.0,3030772,3182063.717404722,1555588.7307324912,4
490,BROCKET AGDM,49.617,-113.817,AB,-2.2,0.0,,14.5,0.0,-21.0,0.0,,,,7.8,4.0,,,3.0,,,,566.8,0.0,3030830,2911415.393395808,1512571.8808957972,4
491,BROOKS,50.555,-111.849,AB,-8.1,0.0,,9.6,0.0,-29.6,0.0,,,,5.7,0.0,,1.0,2.0,,,,731.7,0.0,3030QLP,3130246.9059880595,1675133.0724167647,-1
492,CALGARY INTL A,51.123,-114.013,AB,-4.6,0.0,,14.9,0.0,-19.8,0.0,13.7,0.0,,8.0,0.0,,1.0,2.0,,,,633.6,0.0,3031092,2889621.1980360094,1775148.211270325,4
493,CALGARY INT'L CS,51.109,-114.014,AB,-4.9,0.0,,14.5,0.0,-20.7,0.0,,,,4.6,0.0,,1.0,1.0,,,,640.0,0.0,3031094,2889510.0031617256,1772668.340457674,4
494,CARDSTON,49.201,-113.286,AB,-1.5,0.0,,15.8,0.0,-21.0,0.0,,,,20.8,5.0,,,7.0,,,,545.8,0.0,3031322,2970459.871640973,1441478.2135305498,4
495,CARWAY,49.001,-113.376,AB,-2.3,0.0,,16.0,0.0,-18.7,0.0,,,,19.1,2.0,,16.0,3.0,,,,568.6,0.0,3031402,2960452.332955351,1407511.3920396622,4
496,CHAMPION AGDM,50.282,-113.35,AB,-4.7,0.0,,17.9,0.0,-23.4,0.0,,,,3.9,4.0,,,1.0,,,,635.6,0.0,3031480,2963343.399686754,1627491.0503846798,4
497,CLARESHOLM,50.004,-113.639,AB,-3.4,0.0,,17.0,0.0,-24.7,0.0,,,,7.8,1.0,,2.0,3.0,,,,599.4,0.0,3031640,2931208.081018481,1579256.4413114209,4
498,COP UPPER,51.076,-114.222,AB,-4.7,0.0,,13.7,0.0,-18.9,0.0,,,,5.6,0.0,,,2.0,,,,636.9,0.0,3031875,2866381.4693105123,1766825.9013765128,4
499,ENCHANT AGDM,50.183,-112.433,AB,-5.0,0.0,,15.4,0.0,-21.8,0.0,,,,4.8,2.0,,,2.0,,,,642.9,0.0,3032422,3065309.099405805,1610281.8136581928,4
500,ETZIKOM AGCM,49.553,-111.054,AB,-5.8,0.0,,17.1,0.0,-26.4,0.0,,,,8.3,2.0,,,3.0,,,,665.8,0.0,3032450,3218646.831044381,1501595.0768684233,4
501,FINCASTLE AGDM,49.8,-112.033,AB,-3.7,0.0,,16.3,0.0,-18.9,0.0,,,,8.4,4.0,,,2.0,,,,606.5,0.0,3032550,3109787.0491196783,1544038.4498434775,4
502,FOREMOST AGDM,49.483,-111.486,AB,-4.8,0.0,,15.4,0.0,-25.1,0.0,,,,4.5,8.0,,,2.0,,,,637.2,0.0,3032642,3170610.6453533988,1489605.6536135953,4
503,FORT MACLEOD AGCM,49.786,-113.379,AB,-2.6,1.0,,16.2,1.0,-22.3,0.0,,,,2.6,9.0,,,1.0,,,,555.6,0.0,3032683,2960118.748332497,1541626.9776917025,4
504,GLEICHEN AGCM,50.934,-112.941,AB,-7.2,0.0,,11.0,0.0,-22.7,0.0,,,,3.1,0.0,,,0.0,,,,705.0,0.0,3032801,3008822.1032691877,1741733.1337427096,-1
505,GRASSY LAKE,49.874,-111.733,AB,-4.8,0.0,,17.2,0.0,-26.0,0.0,,,,8.7,5.0,,,3.0,,,,638.6,0.0,3032927,3143145.5114050824,1556796.4004473686,4
506,IRON SPRINGS AGDM,49.9,-112.733,AB,-3.4,0.0,,16.1,0.0,-19.8,0.0,,,,4.5,3.0,,,2.0,,,,600.0,0.0,3033498,3031950.6371204015,1561283.564085777,4
507,IRVINE AGCM,49.989,-110.261,AB,-6.2,0.0,,12.4,0.0,-26.2,0.0,,,,12.0,8.0,,,3.0,,,,677.6,0.0,3033550,3306824.366352134,1576661.8024378112,4
508,LETHBRIDGE,49.63,-112.799,AB,-3.2,4.0,,16.1,3.0,-24.7,4.0,,,,0.0,7.0,,,0.0,,,,509.8,0.0,3033875,3024611.775417612,1514803.3051658114,4
509,LETHBRIDGE CDA,49.695,-112.768,AB,-2.5,0.0,,17.1,0.0,-23.3,0.0,,,,2.8,0.0,,,0.0,,,,574.7,0.0,3033890,3028058.8165204376,1525969.3692501094,4
510,LETHBRIDGE DEMO FARM AGDM,49.683,-112.75,AB,-2.8,0.0,,16.3,0.0,-23.2,0.0,,,,2.8,3.0,,,0.0,,,,583.2,0.0,3033897,3030060.324257562,1523906.8188432856,4
511,MEDICINE HAT,50.019,-110.721,AB,-5.9,0.0,,13.7,0.0,-25.5,0.0,,,,4.2,0.0,,,2.0,,,,669.2,0.0,3034479,3255674.72418118,1581851.8899544487,4
512,MEDICINE HAT RCS,50.025,-110.717,AB,-6.0,0.0,,14.9,0.0,-27.2,0.0,,,,9.3,0.0,,2.0,3.0,,,,671.6,0.0,3034485,3256119.503678319,1582890.296300198,4
513,MOSSLEIGH AGCM,50.673,-113.349,AB,-6.3,0.0,,13.7,0.0,-24.8,0.0,,,,3.4,1.0,,,2.0,,,,680.3,0.0,3034577,2963454.5945610376,1695810.9959986461,4
514,NEIR AGDM,51.369,-114.099,AB,-5.3,0.0,,14.4,0.0,-21.9,0.0,,,,2.9,3.0,,,1.0,,,,651.2,0.0,3034795,2880058.438847527,1818846.2788288752,4
515,PINCHER CREEK,49.521,-113.997,AB,-2.4,1.0,,13.5,1.0,-22.7,1.0,,,,6.8,1.0,,,3.0,,,,551.2,0.0,3035198,2891400.3160245647,1496112.0681404583,4
516,PINCHER CREEK CLIMATE,49.522,-114.005,AB,-2.5,0.0,,13.4,0.0,-22.9,0.0,,,,17.3,0.0,,5.0,7.0,,,,573.3,0.0,3035208,2890510.7570302878,1496283.3578349305,4
517,QUEENSTOWN,50.606,-112.983,AB,-6.4,0.0,-0.8,15.0,0.0,-24.5,0.0,1.0,0.0,6.0,1.0,0.0,6.0,0.0,1.0,,,,683.0,0.0,3035340,3004151.918549231,1684063.777401927,4
518,RAYMOND AGDM,49.483,-112.683,AB,-2.8,0.0,,16.0,0.0,-22.6,0.0,,,,3.6,3.0,,,1.0,,,,583.5,0.0,3035422,3037510.380834635,1489605.6536135953,4
519,ROLLING HILLS AGCM,50.265,-111.701,AB,-6.6,0.0,,12.5,0.0,-28.2,0.0,,,,4.2,4.0,,,2.0,,,,689.1,0.0,3035530,3146703.7473821933,1624533.3863703962,4
520,ROSEMARY AGDM,50.833,-112.05,AB,-10.0,0.0,,9.5,0.0,-31.2,0.0,,,,7.1,6.0,,,3.0,,,,782.9,0.0,3035650,3107896.7362568392,1723932.053998869,-1
521,SEVEN PERSONS AGDM,49.917,-110.917,AB,-5.6,0.0,,14.9,0.0,-23.6,0.0,,,,8.8,1.0,,,3.0,,,,659.4,0.0,3035845,3233880.5288213827,1564218.7863118146,4
522,STANDARD AGCM,51.228,-112.982,AB,-7.1,0.0,,10.1,0.0,-20.9,0.0,,,,15.7,0.0,,,4.0,,,,703.6,0.0,3036086,3004263.113423516,1793771.2442325177,-1
523,STAVELY AAFC,50.183,-113.883,AB,-3.0,0.0,,15.1,0.0,-18.5,0.0,,,,11.3,0.0,,,5.0,,,,589.1,0.0,3036099,2904076.531693019,1610281.8136581928,4
524,STRATHMORE AGDM,51.033,-113.283,AB,-7.0,0.0,,10.6,0.0,-23.5,0.0,,,,3.8,0.0,,,1.0,,,,700.9,0.0,3036205,2970793.456263827,1759219.274785255,-1
525,TABER,49.792,-112.124,AB,-6.4,15.0,,16.5,10.0,-20.0,10.0,4.0,10.0,,4.0,10.0,,,3.0,,,,317.2,0.0,3036360,3099668.3155597732,1542660.3804002274,4
526,TRAVERS AGCM,50.304,-112.863,AB,-4.9,0.0,,16.8,0.0,-21.6,0.0,,,,1.9,4.0,,,0.0,,,,641.4,0.0,3036500,3017495.3034633934,1631320.1840791479,4
527,VAUXHALL CDA CS,50.05,-112.133,AB,-5.0,0.0,,17.0,0.0,-21.7,0.0,,,,8.8,0.0,,,1.0,,,,643.5,0.0,3036682,3098667.561691211,1587218.3861567108,4
528,WILDCAT HILLS,51.269,-114.721,AB,-5.0,4.0,,14.5,4.0,-22.5,4.0,12.4,4.0,,13.8,4.0,,4.0,5.0,,,,552.5,0.0,3037550,2810895.227042455,1801054.6290899692,4
529,WRENTHAM AGDM,49.5,-112.117,AB,-3.6,0.0,,14.7,0.0,-21.1,0.0,,,,5.0,11.0,,,2.0,,,,605.5,0.0,3037675,3100446.679679765,1492515.7934252983,4
530,OKOTOKS,50.729,-113.961,AB,-4.7,0.0,0.3,16.0,0.0,-22.0,0.0,11.5,0.0,67.0,11.5,0.0,66.0,6.0,4.0,,,,634.7,0.0,303M9JM,2895403.3314988133,1705642.4370823167,4
531,DEL BONITA AGDM,49.05,-112.817,AB,-2.7,1.0,,15.4,0.0,-20.2,1.0,,,,8.0,2.0,,,2.0,,,,558.6,0.0,3042045,3022610.2676804895,1415820.6153447852,4
532,MANYBERRIES AGCM,49.364,-110.678,AB,-6.3,0.0,,14.5,0.0,-28.6,0.0,,,,10.7,2.0,,,3.0,,,,681.7,0.0,3044203,3260456.103775422,1469262.9068641206,-1
533,MASINASIN AGDM,49.137,-111.652,AB,-3.3,0.0,,16.7,0.0,-23.3,0.0,,,,5.8,3.0,,0.0,1.0,,,,596.0,0.0,3044232,3152152.296222142,1430593.927979475,4
534,MILK RIVER,49.133,-112.05,AB,-3.8,0.0,,17.2,0.0,-23.9,0.0,,,,10.4,0.0,,6.0,2.0,,,,609.1,0.0,3044533,3107896.7362568392,1429914.1269772733,4
535,ONEFOUR CDA,49.117,-110.467,AB,-6.0,0.0,,13.0,0.0,-26.3,0.0,,,,4.4,0.0,,0.0,2.0,,,,672.0,0.0,3044923,3283918.2222494893,1427195.4713451928,4
536,PAKOWKI LAKE AGCM,49.225,-111.126,AB,-4.4,1.0,,14.8,1.0,-25.0,1.0,,,,5.8,5.0,,,3.0,,,,606.0,0.0,3045000,3210640.8000958837,1445563.4516976867,4
537,BANFF CS,51.193,-115.552,AB,-2.5,0.0,,9.9,0.0,-21.2,0.0,,,,21.8,0.0,,1.0,7.0,,,,573.1,0.0,3050519,2718492.2865118845,1787558.8527605413,-1
538,BEAVER MINES,49.468,-114.175,AB,-2.3,0.0,,12.0,0.0,-23.8,0.0,,,,16.2,6.0,,12.0,4.0,,,,567.5,0.0,3050602,2871607.628401892,1487038.722138457,-1
539,BOW VALLEY,51.083,-115.067,AB,-3.4,0.0,,13.5,0.0,-24.3,0.0,,,,22.7,1.0,,,5.0,,,,598.2,0.0,3050778,2772421.8005399564,1768064.8583108103,4
540,CROWSNEST,49.628,-114.482,AB,-2.2,0.0,,11.3,0.0,-20.8,0.0,,,,0.0,27.0,,,0.0,,,,564.4,0.0,3051R4R,2837470.8019964946,1514459.9703679457,-1
541,JASPER WARDEN,52.926,-118.03,AB,-4.2,0.0,,10.0,0.0,-21.6,0.0,,,,25.1,0.0,,18.0,7.0,,,,621.5,0.0,3053536,2442951.3880344452,2101024.7305172216,-1
542,KANANASKIS,51.028,-115.035,AB,-2.8,0.0,1.9,14.0,0.0,-21.0,0.0,31.9,0.0,134.0,24.4,0.0,116.0,12.0,6.0,,,,581.7,0.0,3053600,2775980.036517066,1758335.241503303,4
543,KANANASKIS POCATERRA,50.713,-115.12,AB,-4.8,22.0,3.3,9.0,15.0,-20.0,15.0,9.0,17.0,,9.0,15.0,,,3.0,,,,137.0,0.0,3053604,2766528.4722028673,1702832.2556383973,-1
544,NORDEGG CS,52.492,-116.04,AB,-5.4,0.0,,13.5,0.0,-22.4,0.0,,,,30.0,0.0,,24.0,7.0,,,,655.8,0.0,3054843,2664229.1878609606,2021371.3210373055,-1
545,PEKISKO,50.368,-114.416,AB,-4.5,0.0,,11.3,0.0,-25.3,0.0,,,,22.2,2.0,,22.0,5.0,,,,629.5,0.0,3055119,2844809.6636992837,1642469.563451089,-1
546,WATERTON PARK GATE,49.131,-113.809,AB,-2.2,0.0,,13.8,0.0,-25.9,0.0,,,,31.1,0.0,,,6.0,,,,566.5,0.0,3056214,2912304.952390085,1429574.2470456194,4
547,NAKISKA RIDGETOP,50.943,-115.19,AB,-6.1,0.0,,5.3,0.0,-18.7,0.0,,,,,,,,,,,,675.2,0.0,305MGFF,2758744.8310029404,1743321.2432463272,-1
548,ATHABASCA AGCM,54.635,-113.382,AB,-10.8,0.0,,8.1,0.0,-26.4,0.0,,,,19.1,0.0,,,5.0,,,,805.3,0.0,3060330,2959785.1637096433,2422689.4889753433,3
549,ATMORE AGDM,54.782,-112.825,AB,-12.6,2.0,,7.1,2.0,-32.8,2.0,,,,19.7,5.0,,12.0,6.0,,,,795.0,0.0,3060406,3021720.7086862107,2450982.08901575,3
550,BARRHEAD CS,54.095,-114.448,AB,-9.6,0.0,,11.3,0.0,-26.9,0.0,,,,19.1,0.0,,18.0,6.0,,,,772.5,0.0,3060535,2841251.427722174,2319626.832327268,3
551,BRULE BLACK CAT,53.35,-117.867,AB,-6.3,13.0,0.2,12.0,10.0,-23.5,6.0,23.2,6.0,,23.2,6.0,,32.0,7.0,,,,364.9,0.0,3060903,2461076.152542848,2179617.7039402137,3
552,CAMPSIE AUTO,54.131,-111.678,AB,-9.2,0.0,,12.4,0.0,-29.8,0.0,,,,19.0,0.0,,15.0,6.0,,,,762.8,0.0,3061201,3149261.2294907407,2326455.7200602526,-1
553,DAPP AGDM,54.317,-113.95,AB,-11.8,0.0,,6.9,0.0,-31.0,0.0,,,,15.7,4.0,,,6.0,,,,833.5,0.0,3061975,2896626.4751159446,2361833.1711653164,3
554,EDSON,53.579,-116.465,AB,-8.3,4.0,,9.0,4.0,-26.0,4.0,,,,14.1,4.0,,,2.0,,,,631.0,0.0,3062239,2616971.3662899714,2222390.7897404153,3
555,EDSON CLIMATE,53.58,-116.453,AB,-7.6,0.0,,12.9,0.0,-28.2,0.0,,,,28.2,0.0,,35.0,6.0,,,,717.7,0.0,3062246,2618305.7047813875,2222578.0789343435,3
556,ENTWISTLE,53.6,-114.983,AB,-5.0,11.0,2.5,14.0,11.0,-25.0,11.0,33.0,11.0,,33.0,11.0,,0.0,7.0,,,,390.3,0.0,3062451,2781762.1699798685,2226324.7935777865,-1
557,EVANSBURG AGCM,53.573,-115.124,AB,-7.8,0.0,,11.8,0.0,-25.2,0.0,,,,25.3,1.0,,,7.0,,,,722.0,0.0,3062475,2766083.6927057295,2221267.1476029037,3
558,FORT ASSINIBOINE AGCM,54.41,-114.769,AB,-9.2,0.0,,12.2,0.0,-26.5,0.0,,,,19.5,0.0,,,6.0,,,,761.3,0.0,3062660,2805557.8730767905,2379581.890890008,3
559,FORT MCMURRAY CS,56.651,-111.213,AB,-17.6,0.0,,2.9,0.0,-39.6,0.0,,,,25.5,0.0,,27.0,7.0,,,,995.8,0.0,3062696,3200966.8460331177,2820015.444333954,-1
560,FORT MCMURRAY A,56.653,-111.223,AB,-18.2,6.0,,-2.8,6.0,-38.5,4.0,,,,19.8,6.0,,,4.0,,,,795.6,0.0,3062697,3199854.8972902703,2820419.9932023305,-1
561,HENDRICKSON CREEK,53.795,-118.447,AB,-7.7,1.0,,9.4,1.0,-27.9,0.0,,,,28.5,2.0,,81.0,7.0,,,,694.6,0.0,3063135,2396583.1254577334,2262948.5760262664,3
562,HIGH PRAIRIE AGDM,55.396,-116.479,AB,-9.9,0.0,,8.3,0.0,-27.5,0.0,,,,14.5,8.0,,,7.0,,,,780.9,0.0,3063165,2615414.638049986,2570281.27631006,3
563,ISLAND LAKE SOUTH,54.821,-113.543,AB,-11.5,0.0,,7.1,0.0,-30.7,0.0,,,,24.6,0.0,,11.0,6.0,,,,824.8,0.0,3063600,2941882.7889498095,2458505.542064652,3
564,LAC LA BICHE CLIMATE,54.769,-112.024,AB,-13.2,0.0,,8.1,0.0,-30.0,0.0,,,,24.1,0.0,,24.0,6.0,,,,873.3,0.0,3063686,3110787.8029882405,2448475.8835774567,3
565,MILDRED LAKE,57.041,-111.559,AB,-16.7,0.0,,2.9,0.0,-36.0,0.0,,,,29.2,1.0,,41.0,8.0,,,,971.5,0.0,3064528,3162493.4195306175,2899311.789105448,-1
566,RICH LAKE AGDM,54.5,-111.7,AB,-14.3,0.0,,6.8,0.0,-32.4,0.0,,,,16.1,0.0,,,6.0,,,,904.4,0.0,3065475,3146814.942256477,2396796.4403688842,3
567,SLAVE LAKE,55.293,-114.777,AB,-10.7,1.0,,7.7,1.0,-25.0,1.0,,,,18.0,1.0,,,4.0,,,,774.1,0.0,3065995,2804668.314082513,2550140.126172784,3
568,SLAVE LAKE RCS,55.293,-114.777,AB,-11.0,0.0,,7.0,0.0,-25.5,0.0,,,,14.6,1.0,,2.0,6.0,,,,813.3,0.0,3065997,2804668.314082513,2550140.126172784,3
569,TAWATINAW AGCM,54.3,-113.52,AB,-11.3,0.0,,6.4,0.0,-25.6,0.0,,,,16.8,7.0,,,7.0,,,,820.8,0.0,3066367,2944440.2710583583,2358593.1202043043,3
570,WHITECOURT,54.14,-115.784,AB,-8.2,0.0,,12.3,0.0,-23.0,0.0,,,,,,,,,,,,732.9,0.0,3067371,2692695.0756778386,2328163.8690991253,3
571,WHITECOURT A,54.144,-115.787,AB,-8.6,0.0,,11.6,0.0,-24.0,0.0,,,,,,,22.0,,,,,745.6,0.0,3067373,2692361.4910549847,2328923.165603944,3
572,WILLOW CREEK 1,53.386,-118.348,AB,-6.7,0.0,,9.4,0.0,-26.5,0.0,,,,25.3,3.0,,42.0,7.0,,,,692.5,0.0,306GE70,2407591.418011917,2186326.595923125,3
573,BEAVERLODGE RCS,55.197,-119.396,AB,-8.0,2.0,,10.4,1.0,-27.1,1.0,,,,37.9,2.0,,7.0,10.0,,,,674.8,0.0,3070600,2291059.189761571,2531414.806203941,-1
574,BROWNVALE AGCM,56.118,-117.886,AB,-10.6,0.0,,6.8,0.0,-24.4,0.0,,,,15.9,7.0,,,5.0,,,,801.4,0.0,3070800,2458963.44993144,2712959.3671649555,3
575,EAGLESHAM AGCM,55.808,-117.887,AB,-10.6,0.0,,7.5,0.0,-26.9,0.0,,,,16.4,3.0,,,7.0,,,,800.9,0.0,3072151,2458852.2550571547,2651374.7621663995,3
576,EGG ISLAND,58.981,-110.439,AB,-22.8,1.0,,-4.5,1.0,-39.0,0.0,,,,,,,,,,,,1101.6,0.0,3072246,3287031.678729461,3306633.353816243,-1
577,FAIRVIEW AGDM,56.081,-118.439,AB,-10.9,0.0,,6.8,0.0,-27.0,0.0,,,,20.4,7.0,,,9.0,,,,808.3,0.0,3072525,2397472.6844520117,2705582.955894701,3
578,FORT CHIPEWYAN,58.767,-111.117,AB,-22.5,1.0,,-3.0,1.0,-40.3,1.0,,,,12.9,1.0,,,2.0,,,,1093.9,0.0,3072655,3211641.553964446,3260599.715705285,-1
579,FORT CHIPEWYAN RCS,58.767,-111.117,AB,-22.8,0.0,,-3.2,0.0,-40.8,0.0,,,,44.0,0.0,,30.0,17.0,,,,1142.5,0.0,3072659,3211641.553964446,3260599.715705285,-1
580,FORT VERMILION,58.382,-116.04,AB,-17.8,0.0,,3.1,0.0,-34.4,0.0,,,,28.9,0.0,,0.0,5.0,,,,1002.5,0.0,3072723,2664229.1878609606,3178491.1541801756,-1
581,GRANDE PRAIRIE A,55.18,-118.885,AB,-9.7,0.0,,7.8,0.0,-30.5,0.0,29.4,1.0,,26.4,1.0,,29.0,8.0,,,,774.4,0.0,3072921,2347879.7705210424,2528103.5704080714,3
582,HAWK HILLS AGCM,57.265,-117.298,AB,-14.8,0.0,,7.2,0.0,-35.9,0.0,,,,18.4,0.0,,,5.0,,,,917.8,0.0,3073071,2524346.036010832,2945233.3532298617,-1
583,HIGH LEVEL,58.622,-117.165,AB,-17.9,1.0,,4.3,1.0,-37.0,0.0,,,,23.1,1.0,,,4.0,,,,969.0,0.0,3073140,2539134.954290694,3229569.5978711713,-1
584,HIGH LEVEL A,58.621,-117.165,AB,-18.6,0.0,-1.7,4.4,0.0,-38.0,0.0,50.8,0.0,241.0,37.8,0.0,216.0,57.0,8.0,,,,1024.7,0.0,3073146,2539134.954290694,3229356.044657235,-1
585,JEAN COTE AGCM,55.913,-117.12,AB,-10.7,0.0,,6.0,0.0,-26.2,0.0,,,,14.8,2.0,,,6.0,,,,804.1,0.0,3073535,2544138.723633505,2672178.8749804124,3
586,LA CRETE AGCM,58.172,-116.343,AB,-18.2,0.0,,2.9,0.0,-36.1,0.0,,,,19.0,0.0,,,7.0,,,,1014.3,0.0,3073730,2630537.140952702,3134081.832642261,-1
587,LA GLACE AGCM,55.422,-119.255,AB,-8.4,22.0,,7.5,16.0,-28.9,12.0,,,,,,,,,,,,158.4,0.0,3073740,2306737.6670357115,2575373.742973524,3
588,MANNING AGDM,56.974,-117.451,AB,-14.9,3.0,,6.9,3.0,-31.3,0.0,,,,3.9,27.0,,,1.0,,,,822.1,0.0,3074190,2507333.2202452766,2885630.13833189,-1
589,CLEARDALE AGDM,56.314,-119.745,AB,-10.0,0.0,,7.7,0.0,-30.4,0.0,,,,36.5,7.0,,,9.0,,,,784.4,0.0,3074935,2252252.178636217,2752153.1857361626,3
590,PEACE RIVER A,56.227,-117.448,AB,-11.5,0.0,,6.5,0.0,-29.3,0.0,26.8,0.0,,26.2,0.0,,,5.0,,,,825.4,0.0,3075041,2507666.804868131,2734731.189131095,3
591,PEORIA AGDM,55.621,-118.293,AB,-7.0,7.0,,10.5,7.0,-31.2,1.0,,,,11.8,12.0,,,3.0,,,,525.9,0.0,3075160,2413707.1360975737,2614462.168345819,-1
592,RED EARTH,56.552,-115.278,AB,-13.5,0.0,,10.0,0.0,-33.5,0.0,,,,46.3,5.0,,18.0,7.0,,,,881.7,0.0,3075488,2748959.6820658874,2800017.0383657385,-1
593,RYCROFT AGCM,55.777,-118.668,AB,-10.2,0.0,,8.5,0.0,-27.7,0.0,,,,21.6,2.0,,,8.0,,,,790.2,0.0,3075601,2372009.0582408183,2645243.327445374,3
594,SAVANNA AGCM,56.076,-119.345,AB,-9.8,0.0,,8.6,0.0,-25.2,0.0,,,,40.2,3.0,,,9.0,,,,778.0,0.0,3075770,2296730.12835009,2704586.686978981,3
595,SIMONETTE,54.425,-117.741,AB,-6.9,12.0,-0.1,13.0,9.0,-29.0,9.0,16.0,9.0,,16.0,9.0,,0.0,3.0,,,,398.0,0.0,3075937,2475086.7067027185,2382448.3558474155,-1
596,SPIRIT RIVER AUTO STATION,55.695,-119.23,AB,-8.0,1.0,,11.7,1.0,-24.6,0.0,,,,53.1,4.0,,59.0,12.0,,,,701.0,0.0,3076069,2309517.5388928275,2629048.172344923,-1
597,TEEPEE CREEK AGCM,55.352,-118.408,AB,-10.3,0.0,,5.7,0.0,-31.1,0.0,,,,15.1,7.0,,,8.0,,,,793.0,0.0,3076366,2400919.725554836,2561670.8805452352,-1
598,VALLEYVIEW AGDM,55.098,-117.199,AB,-8.4,0.0,,9.0,0.0,-27.8,0.0,,,,20.7,7.0,,,8.0,,,,739.2,0.0,3076680,2535354.328565016,2512151.535110689,3
599,GARDEN RIVER,58.711,-113.866,AB,-20.1,0.0,,2.1,0.0,-39.4,0.0,,,,,,,,,,,,1068.0,0.0,307KPFP,2905966.844555858,3248600.3593396153,-1
600,COLD LAKE A,54.417,-110.283,AB,-14.6,0.0,-2.8,7.0,0.0,-30.9,0.0,33.3,0.0,219.0,30.3,0.0,280.0,22.0,6.0,,,,912.6,0.0,3081680,3304378.0791178704,2380919.4440110317,3
601,DUPRE AGCM,54.367,-110.868,AB,-14.8,0.0,,6.6,0.0,-35.5,0.0,,,,14.7,0.0,,,4.0,,,,919.0,0.0,3081690,3239329.0776613327,2371370.4984732596,3
602,BRATT'S LAKE CLIMATE,50.201,-104.71,SK,-16.1,0.0,,0.5,0.0,-34.0,0.0,,,,13.6,0.0,,20.0,3.0,,,,954.2,0.0,4010811,3924067.1135063996,1613408.109704351,3
603,BROADVIEW,50.368,-102.571,SK,-17.8,0.0,-5.2,-0.9,0.0,-33.8,0.0,,,,17.7,0.0,192.0,15.0,5.0,,,,1002.2,0.0,4010879,4161912.949601332,1642469.563451089,3
604,BUFFALO POUND LAKE,50.55,-105.383,SK,-15.7,0.0,,1.5,0.0,-32.0,0.0,0.0,1.0,,0.0,0.0,,0.0,0.0,,,,943.1,0.0,4010984,3849232.9631128088,1674258.0333511624,3
605,CUPAR,50.85,-104.267,SK,-18.4,10.0,-5.6,-3.0,8.0,-36.0,8.0,32.5,8.0,,32.5,8.0,,0.0,5.0,,,,655.5,0.0,4011980,3973326.442814513,1726925.5760503206,-1
606,DUVAL,51.183,-104.867,SK,-16.4,0.0,-5.3,-1.0,0.0,-30.0,0.0,24.7,0.0,236.0,24.7,0.0,223.0,0.0,9.0,,,,964.3,0.0,4012300,3906609.5182437035,1785784.7505663019,3
607,ESTEVAN A,49.217,-102.967,SK,-14.6,17.0,-3.8,3.4,17.0,-27.2,17.0,8.4,17.0,,8.2,17.0,,,3.0,,,,358.1,0.0,4012400,4117879.779384598,1444201.4852503538,-1
608,ESTEVAN A,49.21,-102.966,SK,-16.0,11.0,,0.2,11.0,-36.2,11.0,10.6,11.0,,22.4,11.0,,10.0,4.0,,,,577.4,0.0,4012401,4117990.9742588834,1443009.9454290485,3
609,ESTEVAN,49.217,-102.967,SK,-15.3,0.0,,4.0,0.0,-35.8,0.0,,,,16.5,0.0,,14.0,4.0,,,,931.9,0.0,4012410,4117879.779384598,1444201.4852503538,-1
610,INDIAN HEAD CDA,50.55,-103.65,SK,-17.4,0.0,-5.4,-1.1,0.0,-32.3,0.0,,,,13.1,0.0,92.0,6.0,4.0,,,,991.4,0.0,4013480,4041933.6802481604,1674258.0333511624,3
611,KELLIHER,51.257,-103.753,SK,-18.7,0.0,-6.2,-1.0,0.0,-34.0,0.0,28.0,0.0,191.0,28.0,0.0,185.0,48.0,6.0,,,,1028.8,0.0,4013660,4030480.6081968388,1798922.2344399663,3
612,KIPLING,50.2,-102.733,SK,-17.0,0.0,-5.1,-1.4,0.0,-32.8,0.0,18.0,0.0,131.0,18.0,0.0,120.0,0.0,6.0,,,,980.0,0.0,4014040,4143899.379967213,1613234.3956689974,3
613,LANGENBURG,50.9,-101.717,SK,-19.5,9.0,-5.7,0.5,9.0,-36.0,9.0,16.6,9.0,,16.6,9.0,,50.0,4.0,,,,712.2,0.0,4014145,4256873.372240449,1735736.3809433216,3
614,LAST MOUNTAIN CS,51.417,-105.25,SK,-17.6,0.0,-5.5,0.6,0.0,-36.3,0.0,,,,16.3,1.0,,11.0,6.0,,,,996.4,0.0,4014156,3864021.881392671,1827400.0734339645,3
615,LEROY,52.0,-104.633,SK,-19.0,0.0,-5.7,1.0,0.0,-36.5,0.0,30.0,0.0,264.0,30.0,0.0,248.0,28.0,6.0,,,,1037.2,0.0,4014322,3932629.11882632,1932017.9551961618,3
616,LIPTON 2,51.152,-103.889,SK,-17.9,3.0,-4.0,-0.5,3.0,-31.0,3.0,28.8,3.0,,28.8,3.0,,53.0,6.0,,,,896.9,0.0,4014481,4015358.1052941224,1780287.4784264825,3
617,MOOSE JAW CS,50.332,-105.538,SK,-14.3,0.0,,3.7,0.0,-32.9,0.0,,,,,,,10.0,,,,,903.2,0.0,4015322,3831997.7575986832,1636196.1895196447,3
618,MUENSTER,52.333,-105.0,SK,-19.6,4.0,-6.6,1.0,3.0,-33.0,4.0,35.0,3.0,,35.0,3.0,,0.0,6.0,,,,901.4,0.0,4015440,3891820.5999638415,1992386.3820917327,3
619,OXBOW,49.317,-102.117,SK,-17.4,4.0,,-0.5,4.0,-35.5,4.0,18.5,4.0,,18.5,4.0,,0.0,6.0,,,,848.9,0.0,4015800,4212395.422526577,1461241.940557273,3
620,QU'APPELLE 1,50.567,-103.983,SK,-16.2,0.0,-4.8,0.0,0.0,-30.0,0.0,27.4,0.0,250.0,27.4,0.0,239.0,48.0,5.0,,,,957.8,0.0,4016322,4004905.7871113615,1677233.5449311929,3
621,REGINA RCS,50.433,-104.667,SK,-16.6,0.0,,-0.1,0.0,-34.3,0.0,,,,14.1,0.0,,8.0,5.0,,,,968.0,0.0,4016699,3928848.49310064,1653808.5539952843,3
622,WATROUS EAST,51.667,-105.4,SK,-17.5,0.0,,0.4,0.0,-35.4,0.0,,,,11.1,0.0,,3.0,5.0,,,,993.7,0.0,4018642,3847342.6502499683,1872096.9498722423,3
623,YELLOW GRASS,49.817,-104.183,SK,-14.5,0.0,-4.1,1.0,0.0,-33.0,0.0,35.0,0.0,223.0,35.0,0.0,220.0,0.0,9.0,,,,911.3,0.0,4019040,3982666.812254425,1546967.6036091624,3
624,YORKTON,51.265,-102.464,SK,-19.3,0.0,,-0.6,0.0,-33.3,0.0,,,,14.4,0.0,,19.0,4.0,,,,1043.4,0.0,4019073,4173810.801149793,1800343.7690131105,3
625,YORKTON,51.265,-102.462,SK,-19.2,2.0,,-0.3,2.0,-33.2,2.0,,,,5.9,3.0,,,2.0,,,,966.2,0.0,4019075,4174033.1908983616,1800343.7690131105,3
626,TONKIN,51.2,-102.233,SK,-20.1,0.0,,-1.0,0.0,-36.0,0.0,28.0,0.0,,28.0,0.0,,33.0,5.0,,,,1067.0,0.0,4019082,4199496.817109554,1788800.9533934565,3
627,WYNYARD (AUT),51.767,-104.2,SK,-18.2,0.0,,-0.4,0.0,-32.3,0.0,,,,15.0,0.0,,9.0,6.0,,,,1014.9,0.0,40190LN,3980776.499391586,1890044.7544886041,3
628,WEYBURN,49.7,-103.8,SK,-15.9,0.0,,0.2,0.0,-33.8,0.0,,,,14.4,0.0,,16.0,4.0,,,,949.3,0.0,401HP5R,4025254.4491054593,1526828.9155610157,3
629,ASSINIBOIA AIRPORT,49.729,-105.946,SK,-12.4,0.0,,6.5,0.0,-29.8,0.0,,,,10.3,0.0,,8.0,4.0,,,,852.5,0.0,4020286,3786630.248890533,1531816.0292347148,-1
630,BEECHY,50.832,-107.311,SK,-13.4,0.0,-4.2,3.0,0.0,-34.0,0.0,16.1,0.0,206.0,18.9,0.0,222.0,21.0,6.0,,,,879.6,0.0,4020560,3634849.2454919424,1723755.9984250981,3
631,ELBOW CS,51.133,-106.583,SK,-15.8,0.0,,1.8,0.0,-32.2,0.0,,,,28.7,0.0,,33.0,8.0,,,,947.5,0.0,4022359,3715799.113971191,1776920.007747693,3
632,ELBOW 2 NE,51.167,-106.55,SK,-15.1,8.0,-4.6,4.5,8.0,-33.0,8.0,21.7,8.0,,21.7,8.0,,,6.0,,,,662.8,0.0,4022363,3719468.544822586,1782946.9874264589,3
633,LUCKY LAKE,50.95,-107.15,SK,-14.6,0.0,,2.0,0.0,-31.3,0.0,,,,14.6,0.0,,22.0,7.0,,,,913.8,0.0,4024714,3652751.620251776,1744556.6520843962,3
634,MAPLE CREEK,49.903,-109.466,SK,-7.3,0.0,,13.2,0.0,-30.4,0.0,,,,14.6,0.0,,1.0,5.0,,,,708.2,0.0,4024919,3395224.291408456,1561801.4693124453,-1
635,ROCK POINT,51.154,-107.263,SK,-14.4,0.0,-4.4,2.0,0.0,-30.5,0.0,27.8,0.0,308.0,27.8,0.0,297.0,16.0,9.0,,,,906.0,0.0,4026847,3640186.599457607,1780642.0296702692,3
636,STEWART VALLEY,50.6,-107.8,SK,-11.1,1.0,-2.3,5.0,1.0,-29.0,1.0,14.0,1.0,,14.0,1.0,,7.0,8.0,,,,786.0,0.0,4027775,3580474.951966734,1683012.6040855767,3
637,SWIFT CURRENT,50.292,-107.691,SK,-11.8,3.0,,6.2,3.0,-27.4,2.0,,,,3.1,1.0,,,1.0,,,,743.8,0.0,4028038,3592595.193263764,1629231.3462181808,3
638,SWIFT CURRENT CDA,50.267,-107.733,SK,-11.1,0.0,-2.9,6.5,0.0,-26.4,0.0,,,,12.9,0.0,143.0,0.0,8.0,,,,815.1,0.0,4028060,3587925.008543807,1624881.2920382433,-1
639,LEADER AIRPORT,50.909,-109.501,SK,-11.6,0.0,,6.0,0.0,-30.2,0.0,,,,12.4,0.0,,0.0,4.0,,,,829.2,0.0,402DAF0,3391332.4708084906,1737323.3303544587,3
640,CLAYDON,49.133,-109.1,SK,-6.4,5.0,1.3,8.0,5.0,-23.5,5.0,10.6,5.0,,10.6,5.0,,0.0,5.0,,,,560.7,0.0,4031581,3435921.615396649,1429914.1269772733,-1
641,CORONACH,49.117,-105.517,SK,-12.3,0.0,-3.4,8.5,0.0,-34.0,0.0,23.5,0.0,180.0,25.7,0.0,182.0,21.0,11.0,,,,847.9,0.0,4031844,3834332.8499586615,1427195.4713451928,-1
642,CORONACH SPC,49.05,-105.483,SK,-11.3,0.0,-3.2,7.7,0.0,-33.3,0.0,,,,10.7,0.0,125.0,1.0,3.0,,,,821.0,0.0,40318MN,3838113.4756843396,1415820.6153447852,-1
643,CYPRESS HILLS PARK,49.641,-109.514,SK,-7.7,0.0,,11.2,0.0,-24.9,0.0,,,,47.3,0.0,,10.0,12.0,,,,720.5,0.0,4031999,3389886.9374427907,1516691.8985828515,-1
644,EASTEND CYPRESS (AUT),49.438,-108.989,SK,-8.5,0.0,,8.9,0.0,-28.4,0.0,,,,10.2,0.0,,29.0,4.0,,,,742.6,0.0,4032322,3448264.2464422476,1481907.2160095507,-1
645,MANKOTA,49.099,-107.024,SK,-9.6,0.0,-0.2,7.2,0.0,-31.4,0.0,,,,,,,0.0,,,,,771.9,0.0,4034910,3666762.1744116466,1424138.031793476,-1
646,ROCKGLEN (AUT),49.168,-105.979,SK,-11.0,0.0,,6.6,0.0,-28.9,0.0,,,,15.3,0.0,,5.0,6.0,,,,812.2,0.0,4036844,3782960.8180391383,1435864.2468400523,-1
647,VAL MARIE SOUTHEAST,49.058,-107.586,SK,-8.5,0.0,,9.4,0.0,-35.3,0.0,,,,5.4,0.0,,,2.0,,,,742.1,0.0,4038412,3604270.655063656,1417178.00066695,-1
648,BICKLEIGH,51.294,-108.407,SK,-14.2,11.0,-3.4,3.0,9.0,-29.5,10.0,19.2,0.0,210.0,23.4,0.0,257.0,0.0,7.0,,,,546.9,0.0,4040587,3512979.663275933,1805498.9070850238,3
649,BUTTE ST PIERRE,53.45,-109.2,SK,-16.7,0.0,-3.1,6.0,0.0,-37.5,0.0,27.4,0.0,295.0,27.4,0.0,291.0,22.0,8.0,,,,971.5,0.0,4041000,3424802.12796818,2198267.5362842763,-1
650,KINDERSLEY A,51.515,-109.181,SK,-13.9,0.0,,2.8,0.0,-31.1,0.0,16.1,0.0,,13.2,0.0,,7.0,5.0,,,,893.0,0.0,4043901,3426914.8305795896,1844892.0022401009,3
651,NORTH BATTLEFORD RCS,52.772,-108.256,SK,-16.5,0.0,,3.7,0.0,-33.2,0.0,,,,42.0,0.0,,15.0,17.0,,,,966.0,0.0,4045607,3529770.0892929193,2072669.817313129,-1
652,NORTH BATTLEFORD,52.769,-108.244,SK,-16.7,1.0,,1.9,1.0,-32.7,1.0,,,,0.8,1.0,,,0.0,,,,937.9,0.0,4045695,3531104.427784336,2072118.4461059961,-1
653,ROSETOWN EAST,51.567,-107.917,SK,-15.4,0.0,,2.5,0.0,-32.0,0.0,,,,17.4,0.0,,17.0,5.0,,,,936.1,0.0,4046884,3567465.151675426,1854188.7188198129,3
654,SCOTT CDA,52.36,-108.835,SK,-15.7,0.0,-2.8,2.9,0.0,-33.7,0.0,,,,21.7,0.0,238.0,13.0,6.0,,,,944.1,0.0,4047240,3465388.25708209,1997300.994834314,3
655,WASECA RCS,53.131,-109.405,SK,-15.0,0.0,,3.6,0.0,-29.9,0.0,,,,37.7,0.0,,43.0,9.0,,,,924.5,0.0,4048521,3402007.1787398206,2138926.8484457554,3
656,MELFORT,52.817,-104.6,SK,-19.3,0.0,,0.0,0.0,-35.3,0.0,,,,13.0,0.0,,14.0,4.0,,,,1044.9,0.0,4055079,3936298.5496777142,2080944.948866818,3
657,OUTLOOK PFRA,51.483,-107.05,SK,-14.9,0.0,-4.8,2.9,0.0,-34.0,0.0,,,,18.3,0.0,214.0,30.0,6.0,,,,921.4,0.0,4055736,3663871.1076802453,1839176.2200106066,3
658,PILGER,52.417,-105.15,SK,-19.2,0.0,,0.0,0.0,-36.6,0.0,,,,14.7,0.0,,45.0,6.0,,,,1040.4,0.0,4056121,3875141.3688211385,2007686.1588932155,3
659,PRINCE ALBERT A,53.214,-105.673,SK,-19.5,0.0,,1.7,0.0,-41.1,0.0,26.4,0.0,,21.4,0.0,,34.0,5.0,,,,1049.4,0.0,4056241,3816986.4495702507,2154324.007833941,-1
660,SASKATOON RCS,52.174,-106.719,SK,-17.4,0.0,,1.5,0.0,-35.3,0.0,,,,16.5,0.0,,17.0,7.0,,,,991.7,0.0,4057165,3700676.611068475,1963505.4517632844,3
661,BEACON HILL,54.335,-109.626,SK,-17.7,1.0,,6.0,1.0,-37.0,1.0,32.0,1.0,,32.0,1.0,,50.0,7.0,,,,962.6,0.0,4060452,3377433.1115229055,2365265.272813826,-1
662,BUFFALO NARROWS (AUT),55.841,-108.421,SK,-18.9,0.0,,-0.8,0.0,-36.1,0.0,,,,,,,39.0,,,,,1034.2,0.0,4060983,3511422.9350359463,2657907.14129732,-1
663,CIGAR LAKE,58.083,-104.483,SK,-26.4,0.0,-6.0,-7.0,0.0,-39.0,0.0,10.0,0.0,47.0,10.0,0.0,47.0,38.0,6.0,,,,1243.2,0.0,4061570,3949308.349969021,3115339.8387757707,-1
664,COLLINS BAY,58.229,-103.678,SK,-25.8,0.0,,-6.2,0.0,-42.5,0.0,,,,9.1,0.0,,12.0,3.0,,,,1227.5,0.0,4061629,4038820.22376819,3146109.7839764683,-1
665,COLLINS BAY CAMECO,58.183,-103.7,SK,-26.5,11.0,,-8.2,6.0,-38.5,7.0,13.8,6.0,,13.8,6.0,,0.0,5.0,,,,756.7,0.0,4061632,4036373.9365339265,3136401.513979884,-1
666,ISLAND FALLS (AUT),55.533,-102.35,SK,-23.1,0.0,,-2.1,0.0,-39.4,0.0,,,,11.5,0.0,,37.0,4.0,,,,1149.9,0.0,4063605,4186487.0168182473,2597152.446952164,-1
667,JIMMY LAKE AWOS,54.908,-109.962,SK,-15.9,2.0,,5.4,2.0,-33.0,1.0,,,,20.5,2.0,,,6.0,,,,880.6,0.0,4063623,3340071.6337632528,2475314.8487814656,3
668,KEY LAKE,57.25,-105.6,SK,-26.0,0.0,,-4.0,0.0,-43.7,0.0,,,,9.8,0.0,,28.0,4.0,,,,1231.3,0.0,4063753,3825103.6753930333,2942149.542908429,-1
669,KEY LAKE,57.25,-105.617,SK,-24.6,0.0,-5.9,-4.0,0.0,-42.5,0.0,10.4,0.0,61.0,10.4,0.0,60.0,27.0,5.0,,,,1191.9,0.0,4063755,3823213.3625301924,2942149.542908429,-1
670,KEY LAKE,57.256,-105.618,SK,-25.5,2.0,,-7.3,2.0,-41.3,2.0,,,,7.1,2.0,,,4.0,,,,1131.3,0.0,4063757,3823102.167655909,2943382.9163805842,-1
671,LA RONGE RCS,55.146,-105.27,SK,-20.5,0.0,,-1.7,0.0,-36.6,0.0,,,,54.0,0.0,,42.0,17.0,,,,1078.6,0.0,4064149,3861797.983906978,2521485.3339994485,-1
672,LA RONGE A,55.151,-105.267,SK,-20.9,0.0,,-1.8,0.0,-37.2,0.0,14.6,1.0,,13.8,1.0,,51.0,4.0,,,,1089.6,0.0,4064155,3862131.5685298317,2522458.250244636,-1
673,LOON LAKE RCS,54.02,-109.138,SK,-16.2,0.0,,6.0,0.0,-35.1,0.0,,,,28.8,0.0,,24.0,7.0,,,,957.9,0.0,4064620,3431696.21017383,2305418.993740606,3
674,MEADOW LAKE A,54.125,-108.05,SK,-18.6,0.0,,3.0,0.0,-38.0,0.0,,,,,,,19.0,,,,,1025.9,0.0,4065057,3552676.233395564,2325317.1601832546,-1
675,SOUTHEND,56.333,-103.283,SK,-23.3,0.0,,-2.7,0.0,-39.4,0.0,,,,9.3,0.0,,42.0,3.0,,,,1157.2,0.0,4067655,4082742.199110639,2755963.268066467,-1
676,SPIRITWOOD WEST,53.367,-107.55,SK,-17.5,0.0,,2.4,0.0,-37.1,0.0,,,,21.5,0.0,,20.0,7.0,,,,994.7,0.0,4067723,3608273.670537905,2182785.085357719,-1
677,STONY RAPIDS,59.25,-105.841,SK,-27.5,4.0,,-9.2,4.0,-40.5,4.0,,,,3.2,4.0,,,1.0,,,,1092.1,0.0,4067799,3798305.7106904252,3364905.4592253203,-1
678,WASKESIU LAKE,53.917,-106.067,SK,-18.5,0.0,,-0.7,0.0,-31.8,0.0,,,,17.7,1.0,,39.0,3.0,,,,1020.6,0.0,4068559,3773175.669102087,2285948.5816260055,-1
679,MEADOW LAKE,54.133,-108.517,SK,-17.7,0.0,,3.3,0.0,-39.1,0.0,,,,18.5,0.0,,12.0,6.0,,,,999.7,0.0,406N0NM,3500748.227104618,2326835.276662741,-1
680,URANIUM CITY (AUT),59.567,-108.483,SK,-25.9,0.0,,-6.6,0.0,-41.6,0.0,,,,11.6,0.0,,43.0,3.0,,,,1230.4,0.0,406QLD0,3504528.8528302964,3434168.825935318,-1
681,NIPAWIN,53.333,-104.008,SK,-21.1,2.0,,-7.5,2.0,-39.7,2.0,,,,6.9,17.0,,,1.0,,,,1016.4,0.0,4075525,4002125.9152542455,2176451.585382807,-1
682,NIPAWIN,53.333,-104.0,SK,-20.6,0.0,,1.2,0.0,-39.6,0.0,,,,9.7,0.0,,23.0,3.0,,,,1079.7,0.0,407N51G,4003015.4742485224,2176451.585382807,-1
683,HUDSON BAY(AUT),52.817,-102.317,SK,-20.4,0.0,,0.8,0.0,-37.7,0.0,,,,22.2,0.0,,16.0,4.0,,,,1075.4,0.0,4083324,4190156.4476696416,2080944.948866818,3
684,MCKAGUE 2,52.583,-103.833,SK,-19.7,4.0,-5.7,-0.5,3.0,-35.0,4.0,24.0,2.0,,24.0,2.0,,22.0,4.0,,,,905.8,0.0,4085052,4021585.0182540645,2038007.3596735802,3
685,PELLY,52.083,-101.867,SK,-19.2,0.0,-4.9,22.0,0.0,-38.5,0.0,28.8,0.0,135.0,28.8,0.0,133.0,56.0,5.0,,,,1040.5,0.0,4086000,4240194.141097747,1947022.5395566626,-1
686,PELLY 2,51.733,-101.9,SK,-19.8,0.0,-6.0,-0.5,0.0,-36.5,0.0,20.0,0.0,120.0,20.0,0.0,116.0,38.0,6.0,,,,1057.3,0.0,4086001,4236524.7102463525,1883938.046510146,3
687,BALDUR,49.276,-99.292,MB,-17.2,4.0,-4.9,-2.0,3.0,-33.5,3.0,24.5,0.0,129.0,24.5,0.0,123.0,0.0,6.0,,,,845.1,0.0,5010140,4526520.942380801,1454251.1759230942,3
688,BRANDON A,49.91,-99.952,MB,-19.8,0.0,,-1.0,0.0,-37.1,0.0,20.8,0.0,,15.6,1.0,,26.0,4.0,,,,1058.3,0.0,5010481,4453132.325352912,1563010.0401018588,3
689,BRANDON RCS,49.9,-99.95,MB,-19.4,0.0,,-0.6,0.0,-36.2,0.0,,,,10.5,0.0,,17.0,2.0,,,,1048.2,0.0,5010490,4453354.7151014805,1561283.564085777,3
690,CARBERRY CS,49.906,-99.357,MB,-19.8,0.0,,-0.9,0.0,-36.2,0.0,,,,8.2,0.0,,,3.0,,,,1058.9,0.0,5010547,4519293.275552297,1562319.4067465514,3
691,CYPRESS RIVER RCS,49.562,-99.074,MB,-18.7,0.0,,-0.7,0.0,-34.7,0.0,,,,12.3,1.0,,,2.0,,,,1026.3,0.0,5010641,4550761.4249748625,1503137.8202363476,3
692,ELKHORN 2 EAST,49.927,-101.203,MB,-17.7,3.0,-5.6,-1.0,3.0,-35.0,3.0,11.8,3.0,,11.8,3.0,,13.0,4.0,,,,892.8,0.0,5010QFQ,4314027.537622776,1565945.8710494488,3
693,PORTAGE SOUTHPORT,49.903,-98.284,MB,-17.9,0.0,,-0.9,0.0,-30.4,0.0,,,,9.0,0.0,,8.0,3.0,,,,1004.6,0.0,5012324,4638605.375659759,1561801.4693124453,3
694,ROBLIN,51.183,-101.363,MB,-21.0,0.0,,-1.4,0.0,-37.6,0.0,,,,21.2,0.0,,19.0,5.0,,,,1092.7,0.0,5012469,4296236.357737226,1785784.7505663019,3
695,ST ALPHONSE,49.45,-99.017,MB,-17.4,0.0,-5.6,-1.0,0.0,-34.5,0.0,13.2,0.0,74.0,13.2,0.0,70.0,25.0,3.0,,,,991.5,0.0,5012545,4557099.532809089,1483959.441600861,3
696,SHOAL LAKE CS,50.455,-100.604,MB,-20.7,0.0,,-1.9,0.0,-35.9,0.0,,,,,,,,,,,,1084.6,0.0,5012654,4380633.2673193,1657649.8919729944,3
697,VIRDEN WATER,49.842,-100.934,MB,-17.4,0.0,,0.0,0.0,-34.0,0.0,27.0,0.0,,27.0,0.0,,43.0,4.0,,,,990.9,0.0,5012961,4343938.958805355,1551277.0526789064,3
698,WASAGAMING,50.655,-99.942,MB,-20.5,0.0,-6.3,-0.7,0.0,-39.4,0.0,,,,17.9,0.0,114.0,,4.0,,,,1076.7,0.0,5013117,4454244.27409576,1692653.3811076293,3
699,MELITA,49.281,-100.986,MB,-17.4,0.0,,-0.5,0.0,-34.3,0.0,,,,11.3,0.0,,,4.0,,,,989.8,0.0,501A7AR,4338156.825342551,1455103.3969412455,3
700,DEERWOOD RCS,49.4,-98.319,MB,-17.3,0.0,,-0.7,0.0,-30.2,0.0,,,,5.0,1.0,,,2.0,,,,988.0,0.0,5020725,4634713.555059796,1475411.8124276847,3
701,EMERSON AUTO,49.0,-97.238,MB,-19.0,5.0,,-2.5,4.0,-32.1,4.0,,,,2.9,5.0,,8.0,1.0,,,,849.9,0.0,5020881,4754915.214161537,1407341.9012078,3
702,GRETNA (AUT),49.031,-97.56,MB,-17.8,0.0,,-1.8,0.0,-33.9,0.0,,,,6.9,0.0,,,3.0,,,,1001.6,0.0,5021220,4719110.464641869,1412597.7003038488,3
703,KLEEFELD (MAFRI),49.518,-96.901,MB,-18.5,1.0,,-3.0,0.0,-33.1,1.0,,,,12.1,2.0,,3.0,3.0,,,,984.2,0.0,5021500,4792387.886795474,1495598.2200736515,3
704,MARQUETTE,50.013,-97.807,MB,-18.3,3.0,-5.7,-1.5,3.0,-32.0,3.0,11.4,3.0,,11.4,3.0,,21.0,5.0,,,,907.7,0.0,5021695,4691645.330693553,1580813.6132811727,3
705,MIAMI THIESSEN,49.45,-98.25,MB,-16.2,0.0,,-0.5,0.0,-30.0,0.0,18.3,0.0,,18.4,0.0,,10.0,6.0,,,,956.7,0.0,5021737,4642386.001385439,1483959.441600861,3
706,MORDEN CDA CS,49.188,-98.084,MB,-16.8,0.0,,-0.3,0.0,-30.7,0.0,,,,11.7,1.0,,8.0,3.0,,,,973.8,0.0,5021849,4660844.3505166955,1439266.2039361428,3
707,PILOT MOUND (AUT),49.191,-98.905,MB,-18.9,0.0,,-1.5,0.0,-34.6,0.0,,,,13.0,1.0,,,1.0,,,,1033.3,0.0,5022125,4569553.358728973,1439776.616094592,3
708,SPRAGUE,49.024,-95.598,MB,-18.6,0.0,,-3.4,0.0,-38.7,0.0,,,,16.8,0.0,,34.0,5.0,,,,1025.3,0.0,5022759,4937274.807988414,1411410.6208212255,-1
709,STONY MOUNTAIN,50.117,-97.167,MB,-17.8,1.0,-4.7,14.0,1.0,-32.0,1.0,19.0,1.0,,19.0,1.0,,0.0,6.0,,,,966.2,0.0,5022791,4762810.050235749,1598828.7965388717,-1
710,WINNIPEG THE FORKS,49.888,-97.129,MB,-17.7,0.0,,-2.5,0.0,-29.7,0.0,,,,9.4,1.0,,,2.0,,,,999.1,0.0,5023262,4767035.455458567,1559212.2651449777,3
711,CARMAN U OF M CS,49.498,-98.03,MB,-17.8,0.0,,-1.4,0.0,-32.3,0.0,,,,10.6,0.0,,,3.0,,,,1001.6,0.0,502I001,4666848.873728069,1492173.3715722552,3
712,WINNIPEG A CS,49.917,-97.249,MB,-19.2,0.0,,-3.1,0.0,-33.5,0.0,,,,8.7,1.0,,,3.0,,,,1041.2,0.0,502S001,4753692.070544406,1564218.7863118146,3
713,ARBORG,50.933,-97.083,MB,-20.2,0.0,-5.3,-3.0,0.0,-36.0,0.0,24.2,0.0,239.0,24.2,0.0,195.0,54.0,6.0,,,,1069.4,0.0,5030080,4772150.419675662,1741556.696103393,3
714,BERENS RIVER CS,52.36,-97.022,MB,-23.3,0.0,-7.1,-5.1,0.0,-38.6,0.0,,,,16.0,0.0,130.0,17.0,4.0,,,,1156.8,0.0,5030203,4778933.307007027,1997300.994834314,-1
715,GEORGE ISLAND (AUT),52.819,-97.616,MB,-22.9,0.0,,-4.9,0.0,-34.9,0.0,,,,,,,57.0,,,,,1144.4,0.0,5030984,4712883.551681927,2081312.9312820053,-1
716,FISHER BRANCH (AUT),51.083,-97.555,MB,-20.9,0.0,,-2.2,0.0,-37.1,0.0,,,,16.3,0.0,,23.0,3.0,,,,1090.2,0.0,50309J6,4719666.439013292,1768064.8583108103,3
717,GIMLI HARBOUR CS,50.631,-96.982,MB,-19.3,0.0,,-2.1,0.0,-32.2,0.0,,,,,,,,,,,,1044.5,0.0,5031041,4783381.101978415,1688445.1096288748,3
718,GIMLI CLIMATE,50.633,-97.05,MB,-20.2,0.0,,-2.2,0.0,-35.2,0.0,,,,16.0,0.0,,6.0,3.0,,,,1070.2,0.0,5031042,4775819.850527057,1688795.7168429457,3
719,GRAND RAPIDS HYDRO,53.158,-99.283,MB,-20.2,6.0,-5.2,-5.5,6.0,-35.0,6.0,20.2,6.0,,20.2,6.0,,0.0,6.0,,,,840.5,0.0,5031111,4527521.696249363,2143932.295224769,-1
720,GREAT FALLS CLIMATE,50.522,-95.977,MB,-20.4,0.0,,-4.0,0.0,-36.1,0.0,,,,23.5,0.0,,,5.0,,,,1076.1,0.0,5031201,4895131.95063452,1669359.5286697,3
721,HODGSON 3,51.211,-97.568,MB,-20.0,8.0,,-2.0,8.0,-38.0,8.0,9.0,8.0,,9.0,8.0,,47.0,4.0,,,,760.5,0.0,5031310,4718220.905647592,1790753.207207555,3
722,INDIAN BAY,49.624,-95.197,MB,-19.2,1.0,-5.8,-4.5,1.0,-37.5,1.0,21.0,1.0,,21.0,1.0,,30.0,5.0,,,,1005.3,0.0,5031320,4981863.95257657,1513773.343057355,3
723,GRAND RAPIDS (AUT),53.186,-99.268,MB,-21.4,0.0,,-1.3,0.0,-37.2,0.0,,,,22.5,0.0,,45.0,4.0,,,,1104.4,0.0,5031A10,4529189.619363634,2149126.455301145,-1
724,RENNIE,49.85,-95.533,MB,-21.5,13.0,,-4.5,9.0,-39.0,9.0,16.8,9.0,,16.8,9.0,,,5.0,,,,592.2,0.0,5032360,4944502.474816917,1552656.5469929492,3
725,VICTORIA BEACH (AUT),50.7,-96.567,MB,-19.5,0.0,,-3.5,0.0,-33.2,0.0,,,,,,,,,,,,1049.7,0.0,5032951,4829526.974806558,1700549.689437028,3
726,PINAWA,50.177,-96.065,MB,-20.1,0.0,,-3.4,0.0,-36.9,0.0,,,,37.2,0.0,,6.0,16.0,,,,1067.0,0.0,503B1ER,4885346.801697467,1609239.976787664,3
727,DAUPHIN CS,51.1,-100.057,MB,-19.4,0.0,,0.2,0.0,-36.1,0.0,,,,12.5,0.0,,10.0,3.0,,,,1048.0,0.0,5040681,4441456.86355302,1771074.5344495503,3
728,DAUPHIN,51.101,-100.053,MB,-19.4,2.0,,0.3,2.0,-36.0,2.0,,,,3.3,2.0,,,2.0,,,,972.8,0.0,5040689,4441901.643050159,1771251.6086827079,3
